b'\xc6\x16\xe66\xa66\x96\xd6\n'
b'$GPRMC,150113.000,A,4449.3667,N,09130.3740,W,0.19,200.19,210416,,,A*7B\r\n'
b'$GPGGA,150114.000,4449.3668,N,09130.3741,W,1,10,0.9,255.5,M,-33.8,M,,0000*68\r\n'
b'$GPGSA,A,3,31,25,10,22,14,23,01,32,26,03,,,1.6,0.9,1.3*39\r\n'
b'$GPGSV,3,1,12,31,83,042,40,22,58,277,42,14,43,087,33,32,42,092,33*7B\r\n'
b'$GPGSV,3,2,12,03,36,307,35,26,28,166,35,25,28,049,18,01,20,258,25*74\r\n'
b'$GPGSV,3,3,12,10,07,152,26,23,05,286,20,16,03,182,,12,02,027,*7F\r\n'
b'$GPRMC,150114.000,A,4449.3668,N,09130.3741,W,0.17,263.70,210416,,,A*76\r\n'
b'$GPGGA,150115.000,4449.3668,N,09130.3742,W,1,10,0.9,255.1,M,-33.8,M,,0000*6E\r\n'
b'$GPGSA,A,3,31,25,10,22,14,23,01,32,26,03,,,1.6,0.9,1.3*39\r\n'
b'$GPRMC,150115.000,A,4449.3668,N,09130.3742,W,0.01,249.87,210416,,,A*73\r\n'
b'$GPGGA,150116.000,4449.3668,N,09130.3743,W,1,10,0.9,254.7,M,-33.8,M,,0000*6B\r\n'
b'$GPGSA,A,3,31,25,10,22,14,23,01,32,26,03,,,1.6,0.9,1.3*39\r\n'
b'$GPRMC,150116.000,A,4449.3668,N,09130.3743,W,0.24,235.55,210416,,,A*72\r\n'
b'$GPGGA,150117.000,4449.3669,N,09130.3743,W,1,10,0.9,254.4,M,-33.8,M,,0000*68\r\n'
b'$GPGSA,A,3,31,25,10,22,14,23,01,32,26,03,,,1.6,0.9,1.3*39\r\n'
b'$GPRMC,150117.000,A,4449.3669,N,09130.3743,W,0.14,17.86,210416,,,A*4D\r\n'
b'$GPGGA,150118.000,4449.3670,N,09130.3744,W,1,10,0.9,253.8,M,-33.8,M,,0000*63\r\n'
b'$GPGSA,A,3,31,25,10,22,14,23,01,32,26,03,,,1.6,0.9,1.3*39\r\n'
b'$GPRMC,150118.000,A,4449.3670,N,09130.3744,W,0.28,233.35,210416,,,A*7E\r\n'
b'$GPGGA,150119.000,4449.3671,N,09130.3744,W,1,10,0.9,253.5,M,-33.8,M,,0000*6E\r\n'
b'$GPGSA,A,3,31,25,10,22,14,23,01,32,26,03,,,1.6,0.9,1.3*39\r\n'
b'$GPGSV,3,1,12,31,83,042,40,22,58,277,42,14,43,087,33,32,42,092,33*7B\r\n'
b'$GPGSV,3,2,12,03,36,307,36,26,28,166,35,25,28,049,18,01,20,258,24*76\r\n'
b'$GPGSV,3,3,12,10,07,152,27,23,05,286,19,16,03,182,,12,02,027,*74\r\n'
b'$GPRMC,150119.000,A,4449.3671,N,09130.3744,W,0.10,244.80,210416,,,A*7B\r\n'
b'$GPGGA,150120.000,4449.3672,N,09130.3744,W,1,10,0.9,253.2,M,-33.8,M,,0000*60\r\n'
b'$GPGSA,A,3,31,25,10,22,14,23,01,32,26,03,,,1.6,0.9,1.3*39\r\n'
b'$GPRMC,150120.000,A,4449.3672,N,09130.3744,W,0.25,37.01,210416,,,A*4B\r\n'
b'$GPGGA,150121.000,4449.3672,N,09130.3744,W,1,10,0.9,253.1,M,-33.8,M,,0000*62\r\n'
b'5Y\xc6\x16\x06\xc6\x06\xe6\x96\xc6&F\x86\xe6&\xc6\xd6c\xd666\xe6\x86\xc6\xd6c\xc6\x06\x06\x06\x06\xa6fV\xd6\n'
b'$GPGSA,A,3,31,25,10,22,14,23,01,32,26,03,,,1.6,0.9,1.3*39\r\n'
b'$GPRMC,150148.000,A,4449.3681,N,09130.3749,W,0.23,359.97,210416,,,A*76\r\n'
b'$GPGGA,150149.000,4449.3682,N,09130.3749,W,1,10,0.9,247.9,M,-33.8,M,,0000*63\r\n'
b'$GPGSA,A,3,31,25,10,22,14,23,01,32,26,03,,,1.6,0.9,1.3*39\r\n'
b'$GPGSV,3,1,12,31,83,042,39,22,58,277,41,14,42,087,32,32,42,092,32*77\r\n'
b'$GPGSV,3,2,12,03,36,307,35,26,28,166,35,25,28,049,24,01,20,258,23*7D\r\n'
b'$GPGSV,3,3,12,10,07,152,26,23,05,286,22,16,04,182,,12,02,026,*7B\r\n'
b'$GPRMC,150149.000,A,4449.3682,N,09130.3749,W,0.15,29.24,210416,,,A*4D\r\n'
b'$GPGGA,150150.000,4449.3682,N,09130.3750,W,1,10,0.9,247.4,M,-33.8,M,,0000*6E\r\n'
b'$GPGSA,A,3,31,25,10,22,14,23,01,32,26,03,,,1.6,0.9,1.3*39\r\n'
b'$GPRMC,150150.000,A,4449.3682,N,09130.3750,W,0.24,350.58,210416,,,A*79\r\n'
b'$GPGGA,150151.000,4449.3683,N,09130.3750,W,1,10,0.9,247.4,M,-33.8,M,,0000*6E\r\n'
b'$GPGSA,A,3,31,25,10,22,14,23,01,32,26,03,,,1.6,0.9,1.3*39\r\n'
b'$GPRMC,150151.000,A,4449.3683,N,09130.3750,W,0.22,353.82,210416,,,A*7B\r\n'
b'$GPGGA,150152.000,4449.3682,N,09130.3750,W,1,10,0.9,247.5,M,-33.8,M,,0000*6D\r\n'
b'$GPGSA,A,3,31,25,10,22,14,23,01,32,26,03,,,1.6,0.9,1.3*39\r\n'
b'$GPRMC,150152.000,A,4449.3682,N,09130.3750,W,0.07,258.99,210416,,,A*7E\r\n'
b'$GPGGA,150153.000,4449.3683,N,09130.3749,W,1,10,0.9,248.0,M,-33.8,M,,0000*6F\r\n'
b'$GPGSA,A,3,31,25,10,22,14,23,01,32,26,03,,,1.6,0.9,1.3*39\r\n'
b'$GPRMC,150153.000,A,4449.3683,N,09130.3749,W,0.32,13.54,210416,,,A*4C\r\n'
b'$GPGGA,150154.000,4449.3683,N,09130.3749,W,1,10,0.9,248.0,M,-33.8,M,,0000*68\r\n'
b'$GPGSA,A,3,31,25,10,22,14,23,01,32,26,03,,,1.6,0.9,1.3*39\r\n'
b'$GPGSV,3,1,12,31,83,042,39,22,58,277,41,14,42,087,32,32,42,092,33*76\r\n'
b'$GPGSV,3,2,12,03,36,307,36,26,28,166,35,25,28,049,30,01,20,258,24*7C\r\n'
b'$GPGSV,3,3,12,10,07,152,25,23,05,286,25,16,04,182,,12,02,026,*7F\r\n'
b'$GPRMC,150154.000,A,4449.3683,N,09130.3749,W,0.11,295.05,210416,,,A*72\r\n'
b'$GPGGA,150155.000,4449.3682,N,09130.3749,W,1,10,0.9,248.3,M,-33.8,M,,0000*6B\r\n'
b'$GPGSA,A,3,31,25,10,22,14,23,01,32,26,03,,,1.6,0.9,1.3*39\r\n'
b'$GPRMC,150155.000,A,4449.3682,N,09130.3749,W,0.10,54.96,210416,,,A*46\r\n'
b'$GPGGA,150156.000,4449.3682,N,09130.3749,W,1,10,0.9,248.3,M,-33.8,M,,0000*68\r\n'
b'$GPGSA,A,3,31,25,10,22,14,23,01,32,26,03,,,1.6,0.9,1.3*39\r\n'
b'$GPRMC,150156.000,A,4449.3682,N,09130.3749,W,0.09,264.08,210416,,,A*7B\r\n'
b'$GPGGA,150157.000,4449.3682,N,09130.3748,W,1,10,0.9,248.4,M,-33.8,M,,0000*6F\r\n'
b'$GPGSA,A,3,31,25,10,22,14,23,01,32,26,03,,,1.6,0.9,1.3*39\r\n'
b'$GPRMC,150157.000,A,4449.3682,N,09130.3748,W,0.54,88.44,210416,,,A*4B\r\n'
b'$GPGGA,150158.000,4449.3681,N,09130.3746,W,1,10,0.9,248.4,M,-33.8,M,,0000*6D\r\n'
b'$GPGSA,A,3,31,25,10,22,14,23,01,32,26,03,,,1.6,0.9,1.3*39\r\n'
b'$GPRMC,150158.000,A,4449.3681,N,09130.3746,W,0.89,82.04,210416,,,A*47\r\n'
b'$GPGGA,150159.000,4449.3681,N,09130.3741,W,1,10,0.9,248.4,M,-33.8,M,,0000*6B\r\n'
b'$GPGSA,A,3,31,25,10,22,14,23,01,32,26,03,,,1.6,0.9,1.3*39\r\n'
b'$GPGSV,3,1,12,31,83,042,39,22,58,277,41,14,42,087,32,32,42,092,33*76\r\n'
b'$GPGSV,3,2,12,03,36,307,41,26,28,166,34,25,28,049,31,01,20,258,24*7C\r\n'
b'$GPGSV,3,3,12,10,07,152,30,23,05,286,20,16,04,182,,12,02,026,*7E\r\n'
b'$GPRMC,150159.000,A,4449.3681,N,09130.3741,W,1.82,83.61,210416,,,A*49\r\n'
b'$GPGGA,150200.000,4449.3680,N,09130.3732,W,1,10,0.9,248.2,M,-33.8,M,,0000*67\r\n'
b'$GPGSA,A,3,31,25,10,22,14,23,01,32,26,03,,,1.6,0.9,1.3*39\r\n'
b'$GPRMC,150200.000,A,4449.3680,N,09130.3732,W,2.60,94.53,210416,,,A*4B\r\n'
b'$GPGGA,150201.000,4449.3679,N,09130.3722,W,1,10,0.9,248.2,M,-33.8,M,,0000*61\r\n'
b'$GPGSA,A,3,31,25,10,22,14,23,01,32,26,03,,,1.6,0.9,1.3*39\r\n'
b'$GPRMC,150201.000,A,4449.3679,N,09130.3722,W,2.79,95.13,210416,,,A*40\r\n'
b'$GPGGA,150202.000,4449.3677,N,09130.3711,W,1,10,0.9,248.2,M,-33.8,M,,0000*6C\r\n'
b'$GPGSA,A,3,31,25,10,22,14,23,01,32,26,03,,,1.6,0.9,1.3*39\r\n'
b'$GPRMC,150202.000,A,4449.3677,N,09130.3711,W,2.63,88.60,210416,,,A*4E\r\n'
b'$GPGGA,150203.000,4449.3676,N,09130.3702,W,1,10,0.9,248.3,M,-33.8,M,,0000*6F\r\n'
b'$GPGSA,A,3,31,25,10,22,14,23,01,32,26,03,,,1.6,0.9,1.3*39\r\n'
b'$GPRMC,150203.000,A,4449.3676,N,09130.3702,W,2.29,78.68,210416,,,A*45\r\n'
b'$GPGGA,150204.000,4449.3675,N,09130.3698,W,1,10,0.9,248.1,M,-33.8,M,,0000*6B\r\n'
b'$GPGSA,A,3,31,25,10,22,14,23,01,32,26,03,,,1.6,0.9,1.3*39\r\n'
b'$GPGSV,3,1,12,31,83,042,40,22,58,277,41,14,42,087,32,32,42,092,34*7F\r\n'
b'$GPGSV,3,2,12,03,36,307,35,26,28,166,32,25,28,049,29,01,20,258,32*77\r\n'
b'$GPGSV,3,3,12,10,07,152,30,23,05,286,21,16,04,182,,12,02,026,*7F\r\n'
b'$GPRMC,150204.000,A,4449.3675,N,09130.3698,W,1.02,54.90,210416,,,A*40\r\n'
b'$GPGGA,150205.000,4449.3673,N,09130.3696,W,1,10,0.9,248.4,M,-33.8,M,,0000*67\r\n'
b'$GPGSA,A,3,31,25,10,22,14,23,01,32,26,03,,,1.6,0.9,1.3*39\r\n'
b'$GPRMC,150205.000,A,4449.3673,N,09130.3696,W,0.04,3.91,210416,,,A*7D\r\n'
b'$GPGGA,150206.000,4449.3671,N,09130.3696,W,1,10,0.9,248.7,M,-33.8,M,,0000*65\r\n'
b'$GPGSA,A,3,31,25,10,22,14,23,01,32,26,03,,,1.6,0.9,1.3*39\r\n'
b'$GPRMC,150206.000,A,4449.3671,N,09130.3696,W,0.13,218.70,210416,,,A*7D\r\n'
b'$GPGGA,150207.000,4449.3668,N,09130.3697,W,1,10,0.9,249.1,M,-33.8,M,,0000*6A\r\n'
b'$GPGSA,A,3,31,25,10,22,14,23,01,32,26,03,,,1.6,0.9,1.3*39\r\n'
b'$GPRMC,150207.000,A,4449.3668,N,09130.3697,W,0.80,202.17,210416,,,A*75\r\n'
b'$GPGGA,150208.000,4449.3663,N,09130.3698,W,1,10,0.9,249.5,M,-33.8,M,,0000*65\r\n'
b'$GPGSA,A,3,31,25,10,22,14,23,01,32,26,03,,,1.6,0.9,1.3*39\r\n'
b'$GPRMC,150208.000,A,4449.3663,N,09130.3698,W,2.35,193.94,210416,,,A*72\r\n'
b'$GPGGA,150209.000,4449.3652,N,09130.3700,W,1,10,0.9,249.9,M,-33.8,M,,0000*6A\r\n'
b'$GPGSA,A,3,31,25,10,22,14,23,01,32,26,03,,,1.6,0.9,1.3*39\r\n'
b'$GPGSV,3,1,12,31,83,042,41,22,58,277,40,14,42,087,34,32,42,092,38*75\r\n'
b'$GPGSV,3,2,12,03,36,307,37,26,28,166,37,25,28,049,29,01,20,258,38*7A\r\n'
b'$GPGSV,3,3,12,10,07,152,27,23,05,286,28,16,04,182,,12,02,026,*70\r\n'
b'$GPRMC,150209.000,A,4449.3652,N,09130.3700,W,3.75,184.67,210416,,,A*7E\r\n'
b'$GPGGA,150210.000,4449.3638,N,09130.3700,W,1,10,0.9,250.2,M,-33.8,M,,0000*6D\r\n'
b'$GPGSA,A,3,31,25,10,22,14,23,01,32,26,03,,,1.6,0.9,1.3*39\r\n'
b'$GPRMC,150210.000,A,4449.3638,N,09130.3700,W,5.14,178.12,210416,,,A*7A\r\n'
b'$GPGGA,150211.000,4449.3621,N,09130.3698,W,1,10,0.9,250.3,M,-33.8,M,,0000*65\r\n'
b'$GPGSA,A,3,31,25,10,22,14,23,01,32,26,03,,,1.6,0.9,1.3*39\r\n'
b'$GPRMC,150211.000,A,4449.3621,N,09130.3698,W,6.38,170.64,210416,,,A*77\r\n'
b'$GPGGA,150212.000,4449.3601,N,09130.3693,W,1,10,0.9,250.3,M,-33.8,M,,0000*6F\r\n'
b'$GPGSA,A,3,31,25,10,22,14,23,01,32,26,03,,,1.6,0.9,1.3*39\r\n'
b'$GPRMC,150212.000,A,4449.3601,N,09130.3693,W,6.92,165.78,210416,,,A*74\r\n'
b'$GPGGA,150213.000,4449.3581,N,09130.3685,W,1,10,0.9,250.3,M,-33.8,M,,0000*62\r\n'
b'$GPGSA,A,3,31,25,10,22,14,23,01,32,26,03,,,1.6,0.9,1.3*39\r\n'
b'$GPRMC,150213.000,A,4449.3581,N,09130.3685,W,7.63,162.22,210416,,,A*7E\r\n'
b'$GPGGA,150214.000,4449.3562,N,09130.3672,W,1,10,0.9,250.0,M,-33.8,M,,0000*63\r\n'
b'$GPGSA,A,3,31,25,10,22,14,23,01,32,26,03,,,1.6,0.9,1.3*39\r\n'
b'$GPGSV,3,1,12,31,83,042,40,22,58,277,41,14,42,087,35,32,42,092,41*7A\r\n'
b'$GPGSV,3,2,12,03,36,307,30,26,28,166,37,25,28,049,35,01,20,258,32*7A\r\n'
b'$GPGSV,3,3,12,10,07,152,25,23,05,286,19,16,04,182,,12,02,026,*70\r\n'
b'$GPRMC,150214.000,A,4449.3562,N,09130.3672,W,7.09,141.88,210416,,,A*71\r\n'
b'$GPGGA,150215.000,4449.3548,N,09130.3654,W,1,09,1.0,249.8,M,-33.8,M,,0000*6E\r\n'
b'$GPGSA,A,3,31,25,10,22,14,01,32,26,03,,,,1.8,1.0,1.6*3B\r\n'
b'$GPRMC,150215.000,A,4449.3548,N,09130.3654,W,6.13,125.57,210416,,,A*76\r\n'
b'$GPGGA,150216.000,4449.3541,N,09130.3639,W,1,09,1.0,249.5,M,-33.8,M,,0000*62\r\n'
b'$GPGSA,A,3,31,25,10,22,14,01,32,26,03,,,,1.8,1.0,1.6*3B\r\n'
b'$GPRMC,150216.000,A,4449.3541,N,09130.3639,W,2.93,118.91,210416,,,A*7F\r\n'
b'$GPGGA,150217.000,4449.3539,N,09130.3634,W,1,09,1.0,249.1,M,-33.8,M,,0000*65\r\n'
b'$GPGSA,A,3,31,25,10,22,14,01,32,26,03,,,,1.8,1.0,1.6*3B\r\n'
b'$GPRMC,150217.000,A,4449.3539,N,09130.3634,W,0.24,116.52,210416,,,A*73\r\n'
b'$GPGGA,150218.000,4449.3540,N,09130.3633,W,1,10,0.9,248.5,M,-33.8,M,,0000*66\r\n'
b'$GPGSA,A,3,31,25,10,22,14,01,32,26,03,23,,,1.6,0.9,1.3*39\r\n'
b'$GPRMC,150218.000,A,4449.3540,N,09130.3633,W,0.14,342.22,210416,,,A*72\r\n'
b'$GPGGA,150219.000,4449.3540,N,09130.3633,W,1,10,0.9,247.8,M,-33.8,M,,0000*65\r\n'
b'$GPGSA,A,3,31,25,10,22,14,01,32,26,03,23,,,1.6,0.9,1.3*39\r\n'
b'$GPGSV,3,1,12,31,83,042,36,22,58,277,36,14,42,087,39,32,42,092,42*74\r\n'
b'$GPGSV,3,2,12,03,36,307,31,26,28,166,38,25,28,049,20,01,20,258,34*76\r\n'
b'$GPGSV,3,3,12,10,07,152,24,23,05,286,21,16,04,182,28,12,02,026,*70\r\n'
b'$GPRMC,150219.000,A,4449.3540,N,09130.3633,W,0.08,235.69,210416,,,A*70\r\n'
b'$GPGGA,150220.000,4449.3541,N,09130.3632,W,1,10,0.9,247.1,M,-33.8,M,,0000*66\r\n'
b'$GPGSA,A,3,31,25,10,22,14,01,32,26,03,23,,,1.6,0.9,1.3*39\r\n'
b'$GPRMC,150220.000,A,4449.3541,N,09130.3632,W,0.32,1.43,210416,,,A*7E\r\n'
b'$GPGGA,150221.000,4449.3542,N,09130.3631,W,1,10,0.9,246.5,M,-33.8,M,,0000*62\r\n'
b'$GPGSA,A,3,31,25,10,22,14,01,32,26,03,23,,,1.6,0.9,1.3*39\r\n'
b'$GPRMC,150221.000,A,4449.3542,N,09130.3631,W,0.11,98.00,210416,,,A*49\r\n'
b'$GPGGA,150222.000,4449.3542,N,09130.3630,W,1,10,0.9,245.9,M,-33.8,M,,0000*6F\r\n'
b'$GPGSA,A,3,31,25,10,22,14,01,32,26,03,23,,,1.6,0.9,1.3*39\r\n'
b'$GPRMC,150222.000,A,4449.3542,N,09130.3630,W,0.28,15.49,210416,,,A*49\r\n'
b'$GPGGA,150223.000,4449.3543,N,09130.3629,W,1,10,0.9,245.2,M,-33.8,M,,0000*6C\r\n'
b'$GPGSA,A,3,31,25,10,22,14,01,32,26,03,23,,,1.6,0.9,1.3*39\r\n'
b'$GPRMC,150223.000,A,4449.3543,N,09130.3629,W,0.26,99.44,210416,,,A*46\r\n'
b'$GPGGA,150224.000,4449.3541,N,09130.3625,W,1,10,0.9,244.8,M,-33.8,M,,0000*6E\r\n'
b'$GPGSA,A,3,31,25,10,22,14,01,32,26,03,23,,,1.6,0.9,1.3*39\r\n'
b'$GPGSV,3,1,12,31,83,042,37,22,58,277,37,14,42,087,39,32,42,092,42*74\r\n'
b'$GPGSV,3,2,12,03,36,307,29,26,28,166,39,25,28,049,30,01,20,258,35*7E\r\n'
b'$GPGSV,3,3,12,10,07,152,23,23,05,286,20,16,04,182,28,12,02,026,*76\r\n'
b'$GPRMC,150224.000,A,4449.3541,N,09130.3625,W,1.78,116.45,210416,,,A*72\r\n'
b'$GPGGA,150225.000,4449.3535,N,09130.3617,W,1,09,1.0,244.6,M,-33.8,M,,0000*63\r\n'
b'$GPGSA,A,3,31,25,22,14,01,32,26,03,23,,,,1.8,1.0,1.4*39\r\n'
b'$GPRMC,150225.000,A,4449.3535,N,09130.3617,W,4.21,137.32,210416,,,A*7B\r\n'
b'$GPGGA,150226.000,4449.3522,N,09130.3607,W,1,08,1.1,244.4,M,-33.8,M,,0000*65\r\n'
b'$GPGSA,A,3,31,25,22,14,01,32,26,03,,,,,2.1,1.1,1.8*3F\r\n'
b'$GPRMC,150226.000,A,4449.3522,N,09130.3607,W,6.36,158.50,210416,,,A*76\r\n'
b'$GPGGA,150227.000,4449.3500,N,09130.3601,W,1,09,1.0,244.5,M,-33.8,M,,0000*63\r\n'
b'$GPGSA,A,3,31,25,10,22,14,01,32,26,03,,,,1.8,1.0,1.6*3B\r\n'
b'$GPRMC,150227.000,A,4449.3500,N,09130.3601,W,8.75,173.38,210416,,,A*7F\r\n'
b'$GPGGA,150228.000,4449.3472,N,09130.3599,W,1,09,1.0,244.5,M,-33.8,M,,0000*6A\r\n'
b'$GPGSA,A,3,31,25,10,22,14,01,32,26,03,,,,1.8,1.0,1.6*3B\r\n'
b'$GPRMC,150228.000,A,4449.3472,N,09130.3599,W,10.90,178.96,210416,,,A*4B\r\n'
b'$GPGGA,150229.000,4449.3437,N,09130.3599,W,1,09,1.0,244.5,M,-33.8,M,,0000*6A\r\n'
b'$GPGSA,A,3,31,25,10,22,14,01,32,26,03,,,,1.8,1.0,1.6*3B\r\n'
b'$GPGSV,3,1,12,31,83,042,40,22,58,277,43,14,42,087,43,32,42,092,41*79\r\n'
b'$GPGSV,3,2,12,03,36,307,39,26,28,166,39,25,28,049,33,01,20,258,36*7F\r\n'
b'$GPGSV,3,3,12,10,07,152,27,23,05,286,,16,04,182,28,12,02,026,*70\r\n'
b'$GPRMC,150229.000,A,4449.3437,N,09130.3599,W,13.34,180.65,210416,,,A*4D\r\n'
b'$GPGGA,150230.000,4449.3395,N,09130.3600,W,1,09,1.0,244.3,M,-33.8,M,,0000*68\r\n'
b'$GPGSA,A,3,31,25,10,22,14,01,32,26,03,,,,1.8,1.0,1.6*3B\r\n'
b'$GPRMC,150230.000,A,4449.3395,N,09130.3600,W,15.38,180.27,210416,,,A*45\r\n'
b'$GPGGA,150231.000,4449.3350,N,09130.3601,W,1,09,1.0,244.1,M,-33.8,M,,0000*63\r\n'
b'$GPGSA,A,3,31,25,10,22,14,01,32,26,03,,,,1.8,1.0,1.6*3B\r\n'
b'$GPRMC,150231.000,A,4449.3350,N,09130.3601,W,16.58,179.11,210416,,,A*4A\r\n'
b'$GPGGA,150232.000,4449.3299,N,09130.3599,W,1,09,1.0,244.0,M,-33.8,M,,0000*67\r\n'
b'$GPGSA,A,3,31,25,10,22,14,01,32,26,03,,,,1.8,1.0,1.6*3B\r\n'
b'$GPRMC,150232.000,A,4449.3299,N,09130.3599,W,18.40,178.08,210416,,,A*41\r\n'
b'$GPGGA,150233.000,4449.3244,N,09130.3597,W,1,09,1.0,243.7,M,-33.8,M,,0000*68\r\n'
b'$GPGSA,A,3,31,25,10,22,14,01,32,26,03,,,,1.8,1.0,1.6*3B\r\n'
b'$GPRMC,150233.000,A,4449.3244,N,09130.3597,W,19.77,176.99,210416,,,A*4D\r\n'
b'$GPGGA,150234.000,4449.3187,N,09130.3592,W,1,09,1.0,243.4,M,-33.8,M,,0000*65\r\n'
b'$GPGSA,A,3,31,25,10,22,14,01,32,26,03,,,,1.8,1.0,1.6*3B\r\n'
b'$GPGSV,3,1,12,31,83,042,42,22,58,277,43,14,42,087,42,32,42,092,42*79\r\n'
b'$GPGSV,3,2,12,03,36,307,36,26,28,166,35,25,28,049,30,01,20,258,32*7B\r\n'
b'$GPGSV,3,3,12,10,07,152,36,23,05,286,,16,04,182,22,12,02,026,*7A\r\n'
b'$GPRMC,150234.000,A,4449.3187,N,09130.3592,W,20.85,175.08,210416,,,A*4F\r\n'
b'$GPGGA,150235.000,4449.3127,N,09130.3583,W,1,10,0.9,243.0,M,-33.8,M,,0000*6A\r\n'
b'$GPGSA,A,3,31,25,10,22,14,01,32,26,03,23,,,1.6,0.9,1.3*39\r\n'
b'$GPRMC,150235.000,A,4449.3127,N,09130.3583,W,21.94,173.13,210416,,,A*49\r\n'
b'$GPGGA,150236.000,4449.3064,N,09130.3572,W,1,10,0.9,242.8,M,-33.8,M,,0000*68\r\n'
b'$GPGSA,A,3,31,25,10,22,14,01,32,26,03,23,,,1.6,0.9,1.3*39\r\n'
b'$GPRMC,150236.000,A,4449.3064,N,09130.3572,W,23.05,172.50,210416,,,A*4E\r\n'
b'$GPGGA,150237.000,4449.2998,N,09130.3559,W,1,10,0.9,242.5,M,-33.8,M,,0000*66\r\n'
b'$GPGSA,A,3,31,25,10,22,14,01,32,26,03,23,,,1.6,0.9,1.3*39\r\n'
b'$GPRMC,150237.000,A,4449.2998,N,09130.3559,W,23.85,170.89,210416,,,A*43\r\n'
b'$GPGGA,150238.000,4449.2931,N,09130.3544,W,1,10,0.9,242.1,M,-33.8,M,,0000*62\r\n'
b'$GPGSA,A,3,31,25,10,22,14,01,32,26,03,23,,,1.6,0.9,1.3*39\r\n'
b'$GPRMC,150238.000,A,4449.2931,N,09130.3544,W,24.20,170.42,210416,,,A*4C\r\n'
b'$GPGGA,150239.000,4449.2863,N,09130.3527,W,1,10,0.9,241.8,M,-33.8,M,,0000*6A\r\n'
b'$GPGSA,A,3,31,25,10,22,14,01,32,26,03,23,,,1.6,0.9,1.3*39\r\n'
b'$GPGSV,3,1,12,31,83,042,42,22,58,277,43,14,42,087,41,32,42,092,35*7A\r\n'
b'$GPGSV,3,2,12,03,36,307,33,26,28,166,43,25,28,049,34,01,20,258,34*7D\r\n'
b'$GPGSV,3,3,12,10,07,152,33,23,05,286,22,16,04,182,29,12,02,026,*74\r\n'
b'$GPRMC,150239.000,A,4449.2863,N,09130.3527,W,24.81,169.58,210416,,,A*46\r\n'
b'$GPGGA,150240.000,4449.2793,N,09130.3510,W,1,09,1.0,241.5,M,-33.8,M,,0000*6D\r\n'
b'$GPGSA,A,3,31,25,22,14,01,32,26,03,23,,,,1.8,1.0,1.4*39\r\n'
b'$GPRMC,150240.000,A,4449.2793,N,09130.3510,W,25.13,169.62,210416,,,A*4F\r\n'
b'$GPGGA,150241.000,4449.2723,N,09130.3491,W,1,10,0.9,241.4,M,-33.8,M,,0000*6E\r\n'
b'$GPGSA,A,3,31,25,10,22,14,01,32,26,03,23,,,1.6,0.9,1.3*39\r\n'
b'$GPRMC,150241.000,A,4449.2723,N,09130.3491,W,25.36,169.42,210416,,,A*48\r\n'
b'$GPGGA,150242.000,4449.2653,N,09130.3473,W,1,10,0.9,241.3,M,-33.8,M,,0000*60\r\n'
b'$GPGSA,A,3,31,25,10,22,14,01,32,26,03,23,,,1.6,0.9,1.3*39\r\n'
b'$GPRMC,150242.000,A,4449.2653,N,09130.3473,W,25.41,169.19,210416,,,A*4F\r\n'
b'$GPGGA,150243.000,4449.2582,N,09130.3453,W,1,09,0.9,241.4,M,-33.8,M,,0000*63\r\n'
b'$GPGSA,A,3,31,25,10,22,01,32,26,03,23,,,,1.6,0.9,1.3*3C\r\n'
b'$GPRMC,150243.000,A,4449.2582,N,09130.3453,W,25.29,168.73,210416,,,A*40\r\n'
b'$GPGGA,150244.000,4449.2512,N,09130.3435,W,1,10,0.9,241.2,M,-33.8,M,,0000*63\r\n'
b'$GPGSA,A,3,31,25,10,22,14,01,32,26,03,23,,,1.6,0.9,1.3*39\r\n'
b'$GPGSV,3,1,12,31,82,042,39,22,59,276,39,14,42,087,28,32,42,093,30*71\r\n'
b'$GPGSV,3,2,12,03,37,307,29,26,29,166,42,25,27,049,36,01,20,258,37*79\r\n'
b'$GPGSV,3,3,12,10,06,152,27,23,06,287,24,16,04,182,21,12,02,026,*7C\r\n'
b'$GPRMC,150244.000,A,4449.2512,N,09130.3435,W,24.92,169.22,210416,,,A*4A\r\n'
b'$GPGGA,150245.000,4449.2444,N,09130.3417,W,1,10,0.9,241.0,M,-33.8,M,,0000*62\r\n'
b'$GPGSA,A,3,31,25,10,22,14,01,32,26,03,23,,,1.5,0.9,1.3*3A\r\n'
b'$GPRMC,150245.000,A,4449.2444,N,09130.3417,W,24.86,169.16,210416,,,A*4B\r\n'
b'$GPGGA,150246.000,4449.2375,N,09130.3398,W,1,10,0.9,240.7,M,-33.8,M,,0000*62\r\n'
b'$GPGSA,A,3,31,25,10,22,14,01,32,26,03,23,,,1.5,0.9,1.3*3A\r\n'
b'$GPRMC,150246.000,A,4449.2375,N,09130.3398,W,24.62,168.86,210416,,,A*4F\r\n'
b'$GPGGA,150247.000,4449.2307,N,09130.3379,W,1,10,0.9,240.6,M,-33.8,M,,0000*68\r\n'
b'$GPGSA,A,3,31,25,10,22,14,01,32,26,03,23,,,1.5,0.9,1.3*3A\r\n'
b'$GPRMC,150247.000,A,4449.2307,N,09130.3379,W,24.62,168.98,210416,,,A*4B\r\n'
b'$GPGGA,150248.000,4449.2239,N,09130.3361,W,1,10,0.9,240.5,M,-33.8,M,,0000*61\r\n'
b'$GPGSA,A,3,31,25,10,22,14,01,32,26,03,23,,,1.5,0.9,1.3*3A\r\n'
b'$GPRMC,150248.000,A,4449.2239,N,09130.3361,W,24.51,168.74,210416,,,A*43\r\n'
b'$GPGGA,150249.000,4449.2170,N,09130.3343,W,1,10,0.9,240.7,M,-33.8,M,,0000*6C\r\n'
b'$GPGSA,A,3,31,25,10,22,14,01,32,26,03,23,,,1.5,0.9,1.3*3A\r\n'
b'$GPGSV,3,1,12,31,82,042,39,22,59,276,40,14,42,087,33,32,42,093,30*75\r\n'
b'$GPGSV,3,2,12,03,37,307,31,26,29,166,41,25,27,049,33,01,20,258,37*76\r\n'
b'$GPGSV,3,3,12,10,06,152,27,23,06,287,24,16,04,182,21,12,02,026,*7C\r\n'
b'$GPRMC,150249.000,A,4449.2170,N,09130.3343,W,24.47,169.59,210416,,,A*45\r\n'
b'$GPGGA,150250.000,4449.2102,N,09130.3325,W,1,10,0.9,240.7,M,-33.8,M,,0000*61\r\n'
b'$GPGSA,A,3,31,25,10,22,14,01,32,26,03,23,,,1.5,0.9,1.3*3A\r\n'
b'$GPRMC,150250.000,A,4449.2102,N,09130.3325,W,24.23,169.55,210416,,,A*46\r\n'
b'$GPGGA,150251.000,4449.2034,N,09130.3309,W,1,10,0.9,241.0,M,-33.8,M,,0000*6C\r\n'
b'$GPGSA,A,3,31,25,10,22,14,01,32,26,03,23,,,1.5,0.9,1.3*3A\r\n'
b'$GPRMC,150251.000,A,4449.2034,N,09130.3309,W,24.57,169.67,210416,,,A*4F\r\n'
b'$GPGGA,150252.000,4449.1967,N,09130.3293,W,1,10,0.9,241.0,M,-33.8,M,,0000*61\r\n'
b'$GPGSA,A,3,31,25,10,22,14,01,32,26,03,23,,,1.5,0.9,1.3*3A\r\n'
b'$GPRMC,150252.000,A,4449.1967,N,09130.3293,W,24.32,170.18,210416,,,A*41\r\n'
b'$GPGGA,150253.000,4449.1899,N,09130.3277,W,1,10,0.9,241.0,M,-33.8,M,,0000*6A\r\n'
b'$GPGSA,A,3,31,25,10,22,14,01,32,26,03,23,,,1.5,0.9,1.3*3A\r\n'
b'$GPRMC,150253.000,A,4449.1899,N,09130.3277,W,24.35,170.15,210416,,,A*40\r\n'
b'$GPGGA,150254.000,4449.1831,N,09130.3261,W,1,10,0.9,241.1,M,-33.8,M,,0000*69\r\n'
b'$GPGSA,A,3,31,25,10,22,14,01,32,26,03,23,,,1.5,0.9,1.3*3A\r\n'
b'$GPGSV,3,1,12,31,82,042,39,22,59,276,40,14,42,087,34,32,42,093,32*70\r\n'
b'$GPGSV,3,2,12,03,37,307,30,26,29,166,41,25,27,049,38,01,20,258,37*7C\r\n'
b'$GPGSV,3,3,12,10,06,152,23,23,06,287,23,16,04,182,21,12,02,026,*7F\r\n'
b'$GPRMC,150254.000,A,4449.1831,N,09130.3261,W,24.56,169.76,210416,,,A*4A\r\n'
b'$GPGGA,150255.000,4449.1762,N,09130.3244,W,1,10,0.9,241.2,M,-33.8,M,,0000*65\r\n'
b'$GPGSA,A,3,31,25,10,22,14,01,32,26,03,23,,,1.5,0.9,1.3*3A\r\n'
b'$GPRMC,150255.000,A,4449.1762,N,09130.3244,W,24.67,169.40,210416,,,A*42\r\n'
b'$GPGGA,150256.000,4449.1695,N,09130.3226,W,1,10,0.9,241.2,M,-33.8,M,,0000*6B\r\n'
b'$GPGSA,A,3,31,25,10,22,14,01,32,26,03,23,,,1.5,0.9,1.3*3A\r\n'
b'$GPRMC,150256.000,A,4449.1695,N,09130.3226,W,24.40,169.05,210416,,,A*48\r\n'
b'$GPGGA,150257.000,4449.1626,N,09130.3209,W,1,10,0.9,241.6,M,-33.8,M,,0000*6B\r\n'
b'$GPGSA,A,3,31,25,10,22,14,01,32,26,03,23,,,1.5,0.9,1.3*3A\r\n'
b'$GPRMC,150257.000,A,4449.1626,N,09130.3209,W,24.85,170.39,210416,,,A*42\r\n'
b'$GPGGA,150258.000,4449.1557,N,09130.3191,W,1,10,0.9,241.6,M,-33.8,M,,0000*63\r\n'
b'$GPGSA,A,3,31,25,10,22,14,01,32,26,03,23,,,1.5,0.9,1.3*3A\r\n'
b'$GPRMC,150258.000,A,4449.1557,N,09130.3191,W,24.50,168.14,210416,,,A*44\r\n'
b'$GPGGA,150259.000,4449.1488,N,09130.3172,W,1,10,0.9,241.8,M,-33.8,M,,0000*62\r\n'
b'$GPGSA,A,3,31,25,10,22,14,01,32,26,03,23,,,1.5,0.9,1.3*3A\r\n'
b'$GPGSV,3,1,12,31,82,042,39,22,59,276,37,14,42,087,32,32,42,093,28*7D\r\n'
b'$GPGSV,3,2,12,03,37,307,30,26,29,166,38,25,27,049,31,01,20,258,33*7F\r\n'
b'$GPGSV,3,3,12,10,06,152,35,23,06,287,23,16,04,182,20,12,02,026,*79\r\n'
b'$GPRMC,150259.000,A,4449.1488,N,09130.3172,W,25.17,168.71,210416,,,A*4A\r\n'
b'$GPGGA,150300.000,4449.1418,N,09130.3152,W,1,10,0.9,242.1,M,-33.8,M,,0000*6E\r\n'
b'$GPGSA,A,3,31,25,10,22,14,01,32,26,03,23,,,1.5,0.9,1.3*3A\r\n'
b'$GPRMC,150300.000,A,4449.1418,N,09130.3152,W,25.31,168.71,210416,,,A*48\r\n'
b'$GPGGA,150301.000,4449.1348,N,09130.3134,W,1,10,0.9,242.4,M,-33.8,M,,0000*68\r\n'
b'$GPGSA,A,3,31,25,10,22,14,01,32,26,03,23,,,1.5,0.9,1.3*3A\r\n'
b'$GPRMC,150301.000,A,4449.1348,N,09130.3134,W,25.48,169.11,210416,,,A*42\r\n'
b'$GPGGA,150302.000,4449.1277,N,09130.3115,W,1,10,0.9,242.8,M,-33.8,M,,0000*69\r\n'
b'$GPGSA,A,3,31,25,10,22,14,01,32,26,03,23,,,1.5,0.9,1.3*3A\r\n'
b'$GPRMC,150302.000,A,4449.1277,N,09130.3115,W,25.65,169.43,210416,,,A*47\r\n'
b'$GPGGA,150303.000,4449.1206,N,09130.3097,W,1,10,0.9,243.2,M,-33.8,M,,0000*6E\r\n'
b'$GPGSA,A,3,31,25,10,22,14,01,32,26,03,23,,,1.5,0.9,1.3*3A\r\n'
b'$GPRMC,150303.000,A,4449.1206,N,09130.3097,W,25.71,169.40,210416,,,A*4D\r\n'
b'$GPGGA,150304.000,4449.1134,N,09130.3078,W,1,10,0.9,243.6,M,-33.8,M,,0000*6E\r\n'
b'$GPGSA,A,3,31,25,10,22,14,01,32,26,03,23,,,1.5,0.9,1.3*3A\r\n'
b'$GPGSV,3,1,12,31,82,042,38,22,59,276,37,14,42,087,33,32,42,093,30*74\r\n'
b'$GPGSV,3,2,12,03,37,307,27,26,29,166,40,25,27,049,39,01,20,258,35*78\r\n'
b'$GPGSV,3,3,12,10,06,152,25,23,06,287,22,16,04,182,23,12,02,026,*7A\r\n'
b'$GPRMC,150304.000,A,4449.1134,N,09130.3078,W,25.75,169.32,210416,,,A*48\r\n'
b'$GPGGA,150305.000,4449.1063,N,09130.3060,W,1,10,0.9,244.0,M,-33.8,M,,0000*64\r\n'
b'$GPGSA,A,3,31,25,10,22,14,01,32,26,03,23,,,1.5,0.9,1.3*3A\r\n'
b'$GPRMC,150305.000,A,4449.1063,N,09130.3060,W,25.67,169.43,210416,,,A*46\r\n'
b'$GPGGA,150306.000,4449.0991,N,09130.3042,W,1,10,0.9,244.1,M,-33.8,M,,0000*63\r\n'
b'$GPGSA,A,3,31,25,10,22,14,01,32,26,03,23,,,1.5,0.9,1.3*3A\r\n'
b'$GPRMC,150306.000,A,4449.0991,N,09130.3042,W,25.78,169.54,210416,,,A*48\r\n'
b'$GPGGA,150307.000,4449.0920,N,09130.3023,W,1,10,0.9,243.8,M,-33.8,M,,0000*61\r\n'
b'$GPGSA,A,3,31,25,10,22,14,01,32,26,03,23,,,1.5,0.9,1.3*3A\r\n'
b'$GPRMC,150307.000,A,4449.0920,N,09130.3023,W,25.85,169.38,210416,,,A*4C\r\n'
b'$GPGGA,150308.000,4449.0849,N,09130.3006,W,1,10,0.9,244.0,M,-33.8,M,,0000*68\r\n'
b'$GPGSA,A,3,31,25,10,22,14,01,32,26,03,23,,,1.5,0.9,1.3*3A\r\n'
b'$GPRMC,150308.000,A,4449.0849,N,09130.3006,W,25.46,170.34,210416,,,A*41\r\n'
b'$GPGGA,150309.000,4449.0778,N,09130.2989,W,1,10,0.9,244.2,M,-33.8,M,,0000*69\r\n'
b'$GPGSA,A,3,31,25,10,22,14,01,32,26,03,23,,,1.5,0.9,1.3*3A\r\n'
b'$GPGSV,3,1,12,31,82,042,38,22,59,276,37,14,42,088,33,32,42,093,30*7B\r\n'
b'$GPGSV,3,2,12,03,37,307,27,26,29,166,39,25,27,049,37,01,20,257,33*71\r\n'
b'$GPGSV,3,3,12,10,06,152,17,23,06,287,22,16,04,182,22,12,02,026,*7A\r\n'
b'$GPRMC,150309.000,A,4449.0778,N,09130.2989,W,25.83,169.37,210416,,,A*40\r\n'
b'$GPGGA,150310.000,4449.0707,N,09130.2972,W,1,10,0.9,244.4,M,-33.8,M,,0000*6B\r\n'
b'$GPGSA,A,3,31,25,10,22,14,01,32,26,03,23,,,1.5,0.9,1.3*3A\r\n'
b'$GPRMC,150310.000,A,4449.0707,N,09130.2972,W,25.53,170.24,210416,,,A*43\r\n'
b'$GPGGA,150311.000,4449.0636,N,09130.2955,W,1,10,0.9,244.6,M,-33.8,M,,0000*6E\r\n'
b'$GPGSA,A,3,31,25,10,22,14,01,32,26,03,23,,,1.5,0.9,1.3*3A\r\n'
b'$GPRMC,150311.000,A,4449.0636,N,09130.2955,W,25.36,170.53,210416,,,A*47\r\n'
b'$GPGGA,150312.000,4449.0567,N,09130.2940,W,1,10,0.9,244.4,M,-33.8,M,,0000*6C\r\n'
b'$GPGSA,A,3,31,25,10,22,14,01,32,26,03,23,,,1.5,0.9,1.3*3A\r\n'
b'$GPRMC,150312.000,A,4449.0567,N,09130.2940,W,24.83,171.36,210416,,,A*4A\r\n'
b'$GPGGA,150313.000,4449.0498,N,09130.2925,W,1,10,0.9,244.5,M,-33.8,M,,0000*6E\r\n'
b'$GPGSA,A,3,31,25,10,22,14,01,32,26,03,23,,,1.5,0.9,1.3*3A\r\n'
b'$GPRMC,150313.000,A,4449.0498,N,09130.2925,W,24.63,170.92,210416,,,A*48\r\n'
b'$GPGGA,150314.000,4449.0431,N,09130.2910,W,1,10,0.9,244.5,M,-33.8,M,,0000*6C\r\n'
b'$GPGSA,A,3,31,25,10,22,14,01,32,26,03,23,,,1.5,0.9,1.3*3A\r\n'
b'$GPGSV,3,1,12,31,82,042,38,22,59,275,38,14,42,088,34,32,42,093,31*71\r\n'
b'$GPGSV,3,2,12,03,37,307,27,26,29,166,40,25,27,049,33,01,20,257,35*7D\r\n'
b'$GPGSV,3,3,12,10,06,152,25,23,06,287,22,16,04,182,22,12,02,026,*7B\r\n'
b'$GPRMC,150314.000,A,4449.0431,N,09130.2910,W,23.86,170.18,210416,,,A*44\r\n'
b'$GPGGA,150315.000,4449.0365,N,09130.2893,W,1,10,0.9,244.7,M,-33.8,M,,0000*63\r\n'
b'$GPGSA,A,3,31,25,10,22,14,01,32,26,03,23,,,1.5,0.9,1.3*3A\r\n'
b'$GPRMC,150315.000,A,4449.0365,N,09130.2893,W,23.77,169.32,210416,,,A*47\r\n'
b'$GPGGA,150316.000,4449.0300,N,09130.2875,W,1,10,0.9,244.5,M,-33.8,M,,0000*69\r\n'
b'$GPGSA,A,3,31,25,10,22,14,01,32,26,03,23,,,1.5,0.9,1.3*3A\r\n'
b'$GPRMC,150316.000,A,4449.0300,N,09130.2875,W,23.45,169.38,210416,,,A*44\r\n'
b'$GPGGA,150317.000,4449.0236,N,09130.2859,W,1,10,0.9,244.3,M,-33.8,M,,0000*64\r\n'
b'$GPGSA,A,3,31,25,10,22,14,01,32,26,03,23,,,1.5,0.9,1.3*3A\r\n'
b'$GPRMC,150317.000,A,4449.0236,N,09130.2859,W,23.35,169.85,210416,,,A*4E\r\n'
b'$GPGGA,150318.000,4449.0173,N,09130.2844,W,1,10,0.9,244.1,M,-33.8,M,,0000*67\r\n'
b'$GPGSA,A,3,31,25,10,22,14,01,32,26,03,23,,,1.5,0.9,1.3*3A\r\n'
b'$GPRMC,150318.000,A,4449.0173,N,09130.2844,W,23.02,170.36,210416,,,A*4B\r\n'
b'$GPGGA,150319.000,4449.0110,N,09130.2829,W,1,10,0.9,244.1,M,-33.8,M,,0000*68\r\n'
b'$GPGSA,A,3,31,25,10,22,14,01,32,26,03,23,,,1.5,0.9,1.3*3A\r\n'
b'$GPGSV,3,1,12,31,82,042,38,22,59,275,41,14,42,088,34,32,42,093,35*7B\r\n'
b'$GPGSV,3,2,12,03,37,307,27,26,29,166,41,25,27,049,32,01,20,257,32*7A\r\n'
b'$GPGSV,3,3,12,10,06,152,35,23,06,287,23,16,04,182,34,12,02,026,*7C\r\n'
b'$GPRMC,150319.000,A,4449.0110,N,09130.2829,W,22.44,169.77,210416,,,A*4A\r\n'
b'$GPGGA,150320.000,4449.0049,N,09130.2813,W,1,10,0.9,244.1,M,-33.8,M,,0000*66\r\n'
b'$GPGSA,A,3,31,25,10,22,14,01,32,26,03,23,,,1.5,0.9,1.3*3A\r\n'
b'$GPRMC,150320.000,A,4449.0049,N,09130.2813,W,21.49,169.68,210416,,,A*44\r\n'
b'$GPGGA,150321.000,4448.9991,N,09130.2799,W,1,10,0.9,244.3,M,-33.8,M,,0000*6C\r\n'
b'$GPGSA,A,3,31,25,10,22,14,01,32,26,03,23,,,1.5,0.9,1.3*3A\r\n'
b'$GPRMC,150321.000,A,4448.9991,N,09130.2799,W,20.25,169.88,210416,,,A*49\r\n'
b'$GPGGA,150322.000,4448.9937,N,09130.2785,W,1,10,0.9,244.6,M,-33.8,M,,0000*6B\r\n'
b'$GPGSA,A,3,31,25,10,22,14,01,32,26,03,23,,,1.5,0.9,1.3*3A\r\n'
b'$GPRMC,150322.000,A,4448.9937,N,09130.2785,W,18.67,169.37,210416,,,A*42\r\n'
b'$GPGGA,150323.000,4448.9889,N,09130.2772,W,1,10,0.9,244.9,M,-33.8,M,,0000*69\r\n'
b'$GPGSA,A,3,31,25,10,22,14,01,32,26,03,23,,,1.5,0.9,1.3*3A\r\n'
b'$GPRMC,150323.000,A,4448.9889,N,09130.2772,W,16.55,168.87,210416,,,A*4A\r\n'
b'$GPGGA,150324.000,4448.9848,N,09130.2761,W,1,10,0.9,245.1,M,-33.8,M,,0000*68\r\n'
b'$GPGSA,A,3,31,25,10,22,14,01,32,26,03,23,,,1.5,0.9,1.3*3A\r\n'
b'$GPGSV,3,1,12,31,82,042,39,22,59,275,42,14,42,088,35,32,42,093,34*79\r\n'
b'$GPGSV,3,2,12,03,37,307,27,26,29,166,41,25,27,049,40,01,20,257,39*74\r\n'
b'$GPGSV,3,3,12,10,06,152,21,23,06,287,24,16,04,182,26,12,02,026,*7D\r\n'
b'$GPRMC,150324.000,A,4448.9848,N,09130.2761,W,13.63,168.94,210416,,,A*40\r\n'
b'$GPGGA,150325.000,4448.9815,N,09130.2752,W,1,10,0.9,245.5,M,-33.8,M,,0000*65\r\n'
b'$GPGSA,A,3,31,25,10,22,14,01,32,26,03,23,,,1.5,0.9,1.3*3A\r\n'
b'$GPRMC,150325.000,A,4448.9815,N,09130.2752,W,10.77,168.98,210416,,,A*43\r\n'
b'$GPGGA,150326.000,4448.9789,N,09130.2746,W,1,10,0.9,245.7,M,-33.8,M,,0000*6B\r\n'
b'$GPGSA,A,3,31,25,10,22,14,01,32,26,03,23,,,1.5,0.9,1.3*3A\r\n'
b'$GPRMC,150326.000,A,4448.9789,N,09130.2746,W,8.59,169.78,210416,,,A*75\r\n'
b'$GPGGA,150327.000,4448.9769,N,09130.2741,W,1,10,0.9,245.8,M,-33.8,M,,0000*6C\r\n'
b'$GPGSA,A,3,31,25,10,22,14,01,32,26,03,23,,,1.5,0.9,1.3*3A\r\n'
b'$GPRMC,150327.000,A,4448.9769,N,09130.2741,W,6.42,170.11,210416,,,A*7E\r\n'
b'$GPGGA,150328.000,4448.9754,N,09130.2737,W,1,10,0.9,245.9,M,-33.8,M,,0000*6D\r\n'
b'$GPGSA,A,3,31,25,10,22,14,01,32,26,03,23,,,1.5,0.9,1.3*3A\r\n'
b'$GPRMC,150328.000,A,4448.9754,N,09130.2737,W,4.25,169.96,210416,,,A*7A\r\n'
b'$GPGGA,150329.000,4448.9746,N,09130.2735,W,1,10,0.9,246.3,M,-33.8,M,,0000*64\r\n'
b'$GPGSA,A,3,31,25,10,22,14,01,32,26,03,23,,,1.5,0.9,1.3*3A\r\n'
b'$GPGSV,3,1,12,31,82,042,39,22,59,275,42,14,42,088,35,32,42,093,33*7E\r\n'
b'$GPGSV,3,2,12,03,37,307,35,26,29,166,41,25,27,049,39,01,20,257,31*71\r\n'
b'$GPGSV,3,3,12,10,06,152,21,23,06,287,27,16,04,182,29,12,02,026,*71\r\n'
b'$GPRMC,150329.000,A,4448.9746,N,09130.2735,W,1.91,163.66,210416,,,A*75\r\n'
b'$GPGGA,150330.000,4448.9744,N,09130.2734,W,1,10,0.9,246.3,M,-33.8,M,,0000*6F\r\n'
b'$GPGSA,A,3,31,25,10,22,14,01,32,26,03,23,,,1.5,0.9,1.3*3A\r\n'
b'$GPRMC,150330.000,A,4448.9744,N,09130.2734,W,0.05,77.47,210416,,,A*45\r\n'
b'$GPGGA,150331.000,4448.9745,N,09130.2735,W,1,10,0.9,246.4,M,-33.8,M,,0000*69\r\n'
b'$GPGSA,A,3,31,25,10,22,14,01,32,26,03,23,,,1.5,0.9,1.3*3A\r\n'
b'$GPRMC,150331.000,A,4448.9745,N,09130.2735,W,0.12,20.13,210416,,,A*41\r\n'
b'$GPGGA,150332.000,4448.9745,N,09130.2736,W,1,10,0.9,246.2,M,-33.8,M,,0000*6F\r\n'
b'$GPGSA,A,3,31,25,10,22,14,01,32,26,03,23,,,1.5,0.9,1.3*3A\r\n'
b'$GPRMC,150332.000,A,4448.9745,N,09130.2736,W,0.11,15.54,210416,,,A*47\r\n'
b'$GPGGA,150333.000,4448.9746,N,09130.2737,W,1,10,0.9,246.2,M,-33.8,M,,0000*6C\r\n'
b'$GPGSA,A,3,31,25,10,22,14,01,32,26,03,23,,,1.5,0.9,1.3*3A\r\n'
b'$GPRMC,150333.000,A,4448.9746,N,09130.2737,W,0.17,342.46,210416,,,A*70\r\n'
b'$GPGGA,150334.000,4448.9746,N,09130.2738,W,1,10,0.9,246.3,M,-33.8,M,,0000*65\r\n'
b'$GPGSA,A,3,31,25,10,22,14,01,32,26,03,23,,,1.5,0.9,1.3*3A\r\n'
b'$GPGSV,3,1,12,31,82,042,39,22,59,275,42,14,42,088,36,32,42,093,32*7C\r\n'
b'$GPGSV,3,2,12,03,37,307,36,26,29,166,41,25,27,049,39,01,20,257,28*7A\r\n'
b'$GPGSV,3,3,12,10,06,152,22,23,06,287,20,16,04,182,28,12,02,026,*74\r\n'
b'$GPRMC,150334.000,A,4448.9746,N,09130.2738,W,0.12,34.51,210416,,,A*49\r\n'
b'$GPGGA,150335.000,4448.9747,N,09130.2738,W,1,10,0.9,246.5,M,-33.8,M,,0000*63\r\n'
b'$GPGSA,A,3,31,25,10,22,14,01,32,26,03,23,,,1.5,0.9,1.3*3A\r\n'
b'$GPRMC,150335.000,A,4448.9747,N,09130.2738,W,0.13,38.83,210416,,,A*4B\r\n'
b'$GPGGA,150336.000,4448.9747,N,09130.2738,W,1,10,0.9,246.7,M,-33.8,M,,0000*62\r\n'
b'$GPGSA,A,3,31,25,10,22,14,01,32,26,03,23,,,1.5,0.9,1.3*3A\r\n'
b'$GPRMC,150336.000,A,4448.9747,N,09130.2738,W,0.09,51.03,210416,,,A*44\r\n'
b'$GPGGA,150337.000,4448.9747,N,09130.2738,W,1,10,0.9,247.0,M,-33.8,M,,0000*65\r\n'
b'$GPGSA,A,3,31,25,10,22,14,01,32,26,03,23,,,1.5,0.9,1.3*3A\r\n'
b'$GPRMC,150337.000,A,4448.9747,N,09130.2738,W,0.13,38.43,210416,,,A*45\r\n'
b'$GPGGA,150338.000,4448.9748,N,09130.2738,W,1,10,0.9,247.0,M,-33.8,M,,0000*65\r\n'
b'$GPGSA,A,3,31,25,10,22,14,01,32,26,03,23,,,1.5,0.9,1.3*3A\r\n'
b'$GPRMC,150338.000,A,4448.9748,N,09130.2738,W,0.09,16.82,210416,,,A*4F\r\n'
b'$GPGGA,150339.000,4448.9748,N,09130.2739,W,1,10,0.9,247.1,M,-33.8,M,,0000*64\r\n'
b'$GPGSA,A,3,31,25,10,22,14,01,32,26,03,23,,,1.5,0.9,1.3*3A\r\n'
b'$GPGSV,3,1,12,31,82,042,38,22,59,275,43,14,42,088,36,32,42,093,32*7C\r\n'
b'$GPGSV,3,2,12,03,37,307,36,26,29,166,41,25,27,049,39,01,20,257,28*7A\r\n'
b'$GPGSV,3,3,12,23,06,287,20,10,06,152,23,16,04,182,28,12,01,026,*76\r\n'
b'$GPRMC,150339.000,A,4448.9748,N,09130.2739,W,0.11,34.89,210416,,,A*4D\r\n'
b'$GPGGA,150340.000,4448.9749,N,09130.2739,W,1,10,0.9,247.3,M,-33.8,M,,0000*69\r\n'
b'$GPGSA,A,3,31,25,10,22,14,01,32,26,03,23,,,1.5,0.9,1.3*3A\r\n'
b'$GPRMC,150340.000,A,4448.9749,N,09130.2739,W,0.11,43.93,210416,,,A*49\r\n'
b'$GPGGA,150341.000,4448.9749,N,09130.2739,W,1,10,0.9,247.6,M,-33.8,M,,0000*6D\r\n'
b'$GPGSA,A,3,31,25,10,22,14,01,32,26,03,23,,,1.5,0.9,1.3*3A\r\n'
b'$GPRMC,150341.000,A,4448.9749,N,09130.2739,W,0.13,47.79,210416,,,A*4A\r\n'
b'$GPGGA,150342.000,4448.9750,N,09130.2739,W,1,10,0.9,247.5,M,-33.8,M,,0000*65\r\n'
b'$GPGSA,A,3,31,25,10,22,14,01,32,26,03,23,,,1.5,0.9,1.3*3A\r\n'
b'$GPRMC,150342.000,A,4448.9750,N,09130.2739,W,0.11,351.38,210416,,,A*72\r\n'
b'$GPGGA,150343.000,4448.9750,N,09130.2740,W,1,10,0.9,247.6,M,-33.8,M,,0000*69\r\n'
b'$GPGSA,A,3,31,25,10,22,14,01,32,26,03,23,,,1.5,0.9,1.3*3A\r\n'
b'$GPRMC,150343.000,A,4448.9750,N,09130.2740,W,0.09,119.89,210416,,,A*70\r\n'
b'$GPGGA,150344.000,4448.9748,N,09130.2739,W,1,10,0.9,247.8,M,-33.8,M,,0000*67\r\n'
b'$GPGSA,A,3,31,25,10,22,14,01,32,26,03,23,,,1.5,0.9,1.3*3A\r\n'
b'$GPGSV,3,1,12,31,82,042,38,22,59,275,42,14,42,088,36,32,41,093,32*7E\r\n'
b'$GPGSV,3,2,12,03,37,307,37,26,29,166,41,25,27,049,39,01,20,257,28*7B\r\n'
b'$GPGSV,3,3,12,23,06,287,21,10,06,152,23,16,04,182,29,12,01,026,*76\r\n'
b'$GPRMC,150344.000,A,4448.9748,N,09130.2739,W,1.45,169.03,210416,,,A*7C\r\n'
b'$GPGGA,150345.000,4448.9740,N,09130.2737,W,1,10,0.9,247.9,M,-33.8,M,,0000*61\r\n'
b'$GPGSA,A,3,31,25,10,22,14,01,32,26,03,23,,,1.5,0.9,1.3*3A\r\n'
b'$GPRMC,150345.000,A,4448.9740,N,09130.2737,W,4.00,167.45,210416,,,A*73\r\n'
b'$GPGGA,150346.000,4448.9725,N,09130.2731,W,1,09,1.0,247.9,M,-33.8,M,,0000*67\r\n'
b'$GPGSA,A,3,31,25,22,14,01,32,26,03,23,,,,1.8,1.0,1.4*39\r\n'
b'$GPRMC,150346.000,A,4448.9725,N,09130.2731,W,6.54,162.11,210416,,,A*72\r\n'
b'$GPGGA,150347.000,4448.9705,N,09130.2719,W,1,10,0.9,248.1,M,-33.8,M,,0000*69\r\n'
b'$GPGSA,A,3,31,25,10,22,14,01,32,26,03,23,,,1.5,0.9,1.3*3A\r\n'
b'$GPRMC,150347.000,A,4448.9705,N,09130.2719,W,8.82,151.07,210416,,,A*79\r\n'
b'$GPGGA,150348.000,4448.9683,N,09130.2696,W,1,10,0.9,248.0,M,-33.8,M,,0000*6E\r\n'
b'$GPGSA,A,3,31,25,10,22,14,01,32,26,03,23,,,1.5,0.9,1.3*3A\r\n'
b'$GPRMC,150348.000,A,4448.9683,N,09130.2696,W,10.81,135.70,210416,,,A*47\r\n'
b'$GPGGA,150349.000,4448.9664,N,09130.2659,W,1,10,0.9,247.8,M,-33.8,M,,0000*62\r\n'
b'$GPGSA,A,3,31,25,10,22,14,01,32,26,03,23,,,1.5,0.9,1.3*3A\r\n'
b'$GPGSV,3,1,12,31,82,042,32,22,59,275,39,14,42,088,34,32,41,093,37*7F\r\n'
b'$GPGSV,3,2,12,03,37,307,24,26,29,166,39,25,27,049,24,01,20,257,30*73\r\n'
b'$GPGSV,3,3,12,23,06,287,23,10,06,152,15,16,04,182,,12,01,026,*7A\r\n'
b'$GPRMC,150349.000,A,4448.9664,N,09130.2659,W,12.75,119.11,210416,,,A*4C\r\n'
b'$GPGGA,150350.000,4448.9652,N,09130.2609,W,1,10,0.9,247.6,M,-33.8,M,,0000*64\r\n'
b'$GPGSA,A,3,31,25,10,22,14,01,32,26,03,23,,,1.5,0.9,1.3*3A\r\n'
b'$GPRMC,150350.000,A,4448.9652,N,09130.2609,W,14.37,101.51,210416,,,A*49\r\n'
b'$GPGGA,150351.000,4448.9650,N,09130.2550,W,1,10,0.9,247.6,M,-33.8,M,,0000*68\r\n'
b'$GPGSA,A,3,31,25,10,22,14,01,32,26,03,23,,,1.5,0.9,1.3*3A\r\n'
b'$GPRMC,150351.000,A,4448.9650,N,09130.2550,W,15.59,86.49,210416,,,A*7B\r\n'
b'$GPGGA,150352.000,4448.9655,N,09130.2486,W,1,10,0.9,247.6,M,-33.8,M,,0000*64\r\n'
b'$GPGSA,A,3,31,25,10,22,14,01,32,26,03,23,,,1.5,0.9,1.3*3A\r\n'
b'$GPRMC,150352.000,A,4448.9655,N,09130.2486,W,17.00,80.70,210416,,,A*75\r\n'
b'$GPGGA,150353.000,4448.9667,N,09130.2416,W,1,10,0.9,247.8,M,-33.8,M,,0000*63\r\n'
b'$GPGSA,A,3,31,25,10,22,14,01,32,26,03,23,,,1.5,0.9,1.3*3A\r\n'
b'$GPRMC,150353.000,A,4448.9667,N,09130.2416,W,18.81,77.27,210416,,,A*70\r\n'
b'$GPGGA,150354.000,4448.9676,N,09130.2340,W,1,10,0.9,248.0,M,-33.8,M,,0000*67\r\n'
b'$GPGSA,A,3,31,25,10,22,14,01,32,26,03,23,,,1.5,0.9,1.3*3A\r\n'
b'$GPGSV,3,1,12,31,82,042,38,22,59,275,40,14,42,088,42,32,41,093,43*79\r\n'
b'$GPGSV,3,2,12,03,37,307,37,26,29,166,40,25,27,049,34,01,20,257,26*79\r\n'
b'$GPGSV,3,3,12,23,06,287,33,10,06,152,25,16,04,182,,12,01,026,*78\r\n'
b'$GPRMC,150354.000,A,4448.9676,N,09130.2340,W,19.95,82.35,210416,,,A*7E\r\n'
b'$GPGGA,150355.000,4448.9684,N,09130.2258,W,1,10,0.9,248.1,M,-33.8,M,,0000*62\r\n'
b'$GPGSA,A,3,31,25,10,22,14,01,32,26,03,23,,,1.5,0.9,1.3*3A\r\n'
b'$GPRMC,150355.000,A,4448.9684,N,09130.2258,W,21.35,83.99,210416,,,A*7C\r\n'
b'$GPGGA,150356.000,4448.9691,N,09130.2171,W,1,10,0.9,248.2,M,-33.8,M,,0000*6E\r\n'
b'$GPGSA,A,3,31,25,10,22,14,01,32,26,03,23,,,1.5,0.9,1.3*3A\r\n'
b'$GPRMC,150356.000,A,4448.9691,N,09130.2171,W,22.57,82.95,210416,,,A*79\r\n'
b'$GPGGA,150357.000,4448.9699,N,09130.2081,W,1,10,0.9,248.1,M,-33.8,M,,0000*6A\r\n'
b'$GPGSA,A,3,31,25,10,22,14,01,32,26,03,23,,,1.5,0.9,1.3*3A\r\n'
b'$GPRMC,150357.000,A,4448.9699,N,09130.2081,W,23.52,81.74,210416,,,A*76\r\n'
b'$GPGGA,150358.000,4448.9709,N,09130.1989,W,1,10,0.9,247.9,M,-33.8,M,,0000*68\r\n'
b'$GPGSA,A,3,31,25,10,22,14,01,32,26,03,23,,,1.5,0.9,1.3*3A\r\n'
b'$GPRMC,150358.000,A,4448.9709,N,09130.1989,W,23.73,80.53,210416,,,A*74\r\n'
b'$GPGGA,150359.000,4448.9721,N,09130.1897,W,1,10,0.9,247.9,M,-33.8,M,,0000*6D\r\n'
b'$GPGSA,A,3,31,25,10,22,14,01,32,26,03,23,,,1.5,0.9,1.3*3A\r\n'
b'$GPGSV,3,1,12,31,82,042,39,22,59,275,39,14,42,088,43,32,41,093,44*70\r\n'
b'$GPGSV,3,2,12,03,37,307,37,26,29,166,40,25,27,049,35,01,20,257,22*7C\r\n'
b'$GPGSV,3,3,12,23,06,287,28,10,06,152,24,16,04,182,,12,01,026,*73\r\n'
b'$GPRMC,150359.000,A,4448.9721,N,09130.1897,W,23.56,79.92,210416,,,A*7D\r\n'
b'$GPGGA,150400.000,4448.9732,N,09130.1806,W,1,10,0.9,248.0,M,-33.8,M,,0000*6A\r\n'
b'$GPGSA,A,3,31,25,10,22,14,01,32,26,03,23,,,1.5,0.9,1.3*3A\r\n'
b'$GPRMC,150400.000,A,4448.9732,N,09130.1806,W,23.21,79.86,210416,,,A*79\r\n'
b'$GPGGA,150401.000,4448.9744,N,09130.1716,W,1,10,0.9,248.3,M,-33.8,M,,0000*67\r\n'
b'$GPGSA,A,3,31,25,10,22,14,01,32,26,03,23,,,1.5,0.9,1.3*3A\r\n'
b'$GPRMC,150401.000,A,4448.9744,N,09130.1716,W,22.79,79.85,210416,,,A*78\r\n'
b'$GPGGA,150402.000,4448.9755,N,09130.1629,W,1,10,0.9,248.6,M,-33.8,M,,0000*6C\r\n'
b'$GPGSA,A,3,31,25,10,22,14,01,32,26,03,23,,,1.5,0.9,1.3*3A\r\n'
b'$GPRMC,150402.000,A,4448.9755,N,09130.1629,W,21.78,80.05,210416,,,A*7A\r\n'
b'$GPGGA,150403.000,4448.9766,N,09130.1549,W,1,10,0.9,248.9,M,-33.8,M,,0000*67\r\n'
b'$GPGSA,A,3,31,25,10,22,14,01,32,26,03,23,,,1.5,0.9,1.3*3A\r\n'
b'$GPRMC,150403.000,A,4448.9766,N,09130.1549,W,19.43,79.82,210416,,,A*74\r\n'
b'$GPGGA,150404.000,4448.9775,N,09130.1479,W,1,09,1.0,249.1,M,-33.8,M,,0000*69\r\n'
b'$GPGSA,A,3,31,25,10,22,14,01,32,26,03,,,,1.8,1.0,1.5*38\r\n'
b'$GPGSV,3,1,12,31,82,042,40,22,59,275,39,14,42,088,44,32,41,093,44*79\r\n'
b'$GPGSV,3,2,12,03,37,307,37,26,29,166,40,25,27,049,35,01,20,257,21*7F\r\n'
b'$GPGSV,3,3,12,23,06,287,22,10,06,152,30,16,04,182,,12,01,026,*7C\r\n'
b'$GPRMC,150404.000,A,4448.9775,N,09130.1479,W,16.69,79.71,210416,,,A*78\r\n'
b'$GPGGA,150405.000,4448.9783,N,09130.1419,W,1,09,1.0,249.4,M,-33.8,M,,0000*62\r\n'
b'$GPGSA,A,3,31,25,10,22,14,01,32,26,03,,,,1.8,1.0,1.5*38\r\n'
b'$GPRMC,150405.000,A,4448.9783,N,09130.1419,W,14.33,79.29,210416,,,A*76\r\n'
b'$GPGGA,150406.000,4448.9790,N,09130.1368,W,1,09,1.0,249.7,M,-33.8,M,,0000*61\r\n'
b'$GPGSA,A,3,31,25,10,22,14,01,32,26,03,,,,1.8,1.0,1.5*38\r\n'
b'$GPRMC,150406.000,A,4448.9790,N,09130.1368,W,12.35,79.76,210416,,,A*7C\r\n'
b'$GPGGA,150407.000,4448.9796,N,09130.1325,W,1,09,1.0,250.0,M,-33.8,M,,0000*60\r\n'
b'$GPGSA,A,3,31,25,10,22,14,01,32,26,03,,,,1.8,1.0,1.5*38\r\n'
b'$GPRMC,150407.000,A,4448.9796,N,09130.1325,W,10.44,79.25,210416,,,A*70\r\n'
b'$GPGGA,150408.000,4448.9802,N,09130.1288,W,1,09,1.0,250.5,M,-33.8,M,,0000*6E\r\n'
b'$GPGSA,A,3,31,25,10,22,14,01,32,26,03,,,,1.8,1.0,1.5*38\r\n'
b'$GPRMC,150408.000,A,4448.9802,N,09130.1288,W,8.33,76.85,210416,,,A*47\r\n'
b'$GPGGA,150409.000,4448.9807,N,09130.1259,W,1,10,0.9,250.9,M,-33.8,M,,0000*6A\r\n'
b'$GPGSA,A,3,31,25,10,22,14,23,01,32,26,03,,,1.5,0.9,1.3*3A\r\n'
b'$GPGSV,3,1,12,31,82,042,41,22,59,275,39,14,42,088,45,32,41,093,45*78\r\n'
b'$GPGSV,3,2,12,03,37,307,38,26,29,166,25,25,27,049,35,01,20,257,21*73\r\n'
b'$GPGSV,3,3,12,23,06,287,22,10,06,152,21,16,04,182,,12,01,026,*7C\r\n'
b'$GPRMC,150409.000,A,4448.9807,N,09130.1259,W,6.68,82.22,210416,,,A*49\r\n'
b'$GPGGA,150410.000,4448.9809,N,09130.1232,W,1,09,1.0,251.1,M,-33.8,M,,0000*68\r\n'
b'$GPGSA,A,3,31,25,10,22,14,01,32,26,03,,,,1.8,1.0,1.5*38\r\n'
b'$GPRMC,150410.000,A,4448.9809,N,09130.1232,W,7.06,87.66,210416,,,A*4E\r\n'
b'$GPGGA,150411.000,4448.9812,N,09130.1200,W,1,09,1.0,251.4,M,-33.8,M,,0000*67\r\n'
b'$GPGSA,A,3,31,25,10,22,14,01,32,26,03,,,,1.8,1.0,1.5*38\r\n'
b'$GPRMC,150411.000,A,4448.9812,N,09130.1200,W,8.87,80.82,210416,,,A*4F\r\n'
b'$GPGGA,150412.000,4448.9815,N,09130.1162,W,1,09,1.0,251.6,M,-33.8,M,,0000*66\r\n'
b'$GPGSA,A,3,31,25,10,22,14,01,32,26,03,,,,1.8,1.0,1.5*38\r\n'
b'$GPRMC,150412.000,A,4448.9815,N,09130.1162,W,10.20,88.75,210416,,,A*78\r\n'
b'$GPGGA,150413.000,4448.9820,N,09130.1116,W,1,09,1.0,252.1,M,-33.8,M,,0000*66\r\n'
b'$GPGSA,A,3,31,25,10,22,14,01,32,26,03,,,,1.8,1.0,1.5*38\r\n'
b'$GPRMC,150413.000,A,4448.9820,N,09130.1116,W,12.67,76.96,210416,,,A*71\r\n'
b'$GPGGA,150414.000,4448.9827,N,09130.1064,W,1,09,1.0,252.3,M,-33.8,M,,0000*60\r\n'
b'$GPGSA,A,3,31,25,10,22,14,01,32,26,03,,,,1.8,1.0,1.5*38\r\n'
b'$GPGSV,3,1,12,31,82,042,41,22,59,275,39,14,42,088,44,32,41,093,44*78\r\n'
b'$GPGSV,3,2,12,03,37,307,38,26,29,166,41,25,27,049,35,01,20,257,22*72\r\n'
b'$GPGSV,3,3,12,23,06,287,,10,06,152,35,16,04,182,,12,01,026,*79\r\n'
b'$GPRMC,150414.000,A,4448.9827,N,09130.1064,W,13.86,81.60,210416,,,A*7A\r\n'
b'$GPGGA,150415.000,4448.9835,N,09130.1006,W,1,09,1.0,252.5,M,-33.8,M,,0000*60\r\n'
b'$GPGSA,A,3,31,25,10,22,14,01,32,26,03,,,,1.8,1.0,1.5*38\r\n'
b'$GPRMC,150415.000,A,4448.9835,N,09130.1006,W,15.69,78.15,210416,,,A*7F\r\n'
b'$GPGGA,150416.000,4448.9844,N,09130.0944,W,1,10,0.9,252.4,M,-33.8,M,,0000*6A\r\n'
b'$GPGSA,A,3,31,25,10,22,14,23,01,32,26,03,,,1.5,0.9,1.3*3A\r\n'
b'$GPRMC,150416.000,A,4448.9844,N,09130.0944,W,16.73,78.72,210416,,,A*7D\r\n'
b'$GPGGA,150417.000,4448.9854,N,09130.0877,W,1,10,0.9,252.5,M,-33.8,M,,0000*6A\r\n'
b'$GPGSA,A,3,31,25,10,22,14,23,01,32,26,03,,,1.5,0.9,1.3*3A\r\n'
b'$GPRMC,150417.000,A,4448.9854,N,09130.0877,W,17.99,78.34,210416,,,A*7B\r\n'
b'$GPGGA,150418.000,4448.9865,N,09130.0806,W,1,10,0.9,252.8,M,-33.8,M,,0000*6C\r\n'
b'$GPGSA,A,3,31,25,10,22,14,23,01,32,26,03,,,1.5,0.9,1.3*3A\r\n'
b'$GPRMC,150418.000,A,4448.9865,N,09130.0806,W,18.85,78.53,210416,,,A*73\r\n'
b'$GPGGA,150419.000,4448.9875,N,09130.0732,W,1,10,0.9,253.1,M,-33.8,M,,0000*6C\r\n'
b'$GPGSA,A,3,31,25,10,22,14,23,01,32,26,03,,,1.5,0.9,1.3*3A\r\n'
b'$GPGSV,3,1,12,31,82,042,40,22,59,275,39,14,42,088,44,32,41,093,44*79\r\n'
b'$GPGSV,3,2,12,03,37,307,38,26,29,166,36,25,27,049,35,01,20,257,21*71\r\n'
b'$GPGSV,3,3,12,23,06,287,28,10,06,152,36,16,04,182,31,12,01,026,*72\r\n'
b'$GPRMC,150419.000,A,4448.9875,N,09130.0732,W,19.52,79.70,210416,,,A*70\r\n'
b'$GPGGA,150420.000,4448.9885,N,09130.0656,W,1,10,0.9,253.3,M,-33.8,M,,0000*68\r\n'
b'$GPGSA,A,3,31,25,10,22,14,23,01,32,26,03,,,1.5,0.9,1.3*3A\r\n'
b'$GPRMC,150420.000,A,4448.9885,N,09130.0656,W,19.42,79.79,210416,,,A*7E\r\n'
b'$GPGGA,150421.000,4448.9894,N,09130.0583,W,1,10,0.9,253.8,M,-33.8,M,,0000*69\r\n'
b'$GPGSA,A,3,31,25,10,22,14,23,01,32,26,03,,,1.5,0.9,1.3*3A\r\n'
b'$GPRMC,150421.000,A,4448.9894,N,09130.0583,W,18.64,80.57,210416,,,A*7B\r\n'
b'$GPGGA,150422.000,4448.9902,N,09130.0515,W,1,10,0.9,254.3,M,-33.8,M,,0000*67\r\n'
b'$GPGSA,A,3,31,25,10,22,14,23,01,32,26,03,,,1.5,0.9,1.3*3A\r\n'
b'$GPRMC,150422.000,A,4448.9902,N,09130.0515,W,15.88,83.80,210416,,,A*7F\r\n'
b'$GPGGA,150423.000,4448.9901,N,09130.0458,W,1,10,0.9,254.5,M,-33.8,M,,0000*6B\r\n'
b'$GPGSA,A,3,31,25,10,22,14,23,01,32,26,03,,,1.5,0.9,1.3*3A\r\n'
b'$GPRMC,150423.000,A,4448.9901,N,09130.0458,W,13.77,96.71,210416,,,A*79\r\n'
b'$GPGGA,150424.000,4448.9890,N,09130.0409,W,1,10,0.9,254.6,M,-33.8,M,,0000*62\r\n'
b'$GPGSA,A,3,31,25,10,22,14,23,01,32,26,03,,,1.5,0.9,1.3*3A\r\n'
b'$GPGSV,3,1,12,31,82,042,37,22,59,275,39,14,42,088,38,32,41,093,41*77\r\n'
b'$GPGSV,3,2,12,03,37,307,27,26,29,166,37,25,27,049,34,01,20,257,29*77\r\n'
b'$GPGSV,3,3,12,23,06,287,23,10,06,152,32,16,04,182,,12,01,026,*7F\r\n'
b'$GPRMC,150424.000,A,4448.9890,N,09130.0409,W,12.53,117.87,210416,,,A*45\r\n'
b'$GPGGA,150425.000,4448.9868,N,09130.0372,W,1,10,0.9,254.6,M,-33.8,M,,0000*6F\r\n'
b'$GPGSA,A,3,31,25,10,22,14,23,01,32,26,03,,,1.5,0.9,1.3*3A\r\n'
b'$GPRMC,150425.000,A,4448.9868,N,09130.0372,W,12.42,137.64,210416,,,A*47\r\n'
b'$GPGGA,150426.000,4448.9839,N,09130.0344,W,1,10,0.9,254.8,M,-33.8,M,,0000*63\r\n'
b'$GPGSA,A,3,31,25,10,22,14,23,01,32,26,03,,,1.5,0.9,1.3*3A\r\n'
b'$GPRMC,150426.000,A,4448.9839,N,09130.0344,W,12.11,151.38,210416,,,A*4A\r\n'
b'$GPGGA,150427.000,4448.9804,N,09130.0324,W,1,10,0.9,255.0,M,-33.8,M,,0000*63\r\n'
b'$GPGSA,A,3,31,25,10,22,14,23,01,32,26,03,,,1.5,0.9,1.3*3A\r\n'
b'$GPRMC,150427.000,A,4448.9804,N,09130.0324,W,13.87,160.09,210416,,,A*4D\r\n'
b'$GPGGA,150428.000,4448.9762,N,09130.0307,W,1,10,0.9,255.1,M,-33.8,M,,0000*63\r\n'
b'$GPGSA,A,3,31,25,10,22,14,23,01,32,26,03,,,1.5,0.9,1.3*3A\r\n'
b'$GPRMC,150428.000,A,4448.9762,N,09130.0307,W,16.13,165.86,210416,,,A*46\r\n'
b'$GPGGA,150429.000,4448.9714,N,09130.0291,W,1,10,0.9,255.1,M,-33.8,M,,0000*6D\r\n'
b'$GPGSA,A,3,31,25,10,22,14,23,01,32,26,03,,,1.5,0.9,1.3*3A\r\n'
b'$GPGSV,3,1,12,31,82,042,34,22,59,275,39,14,42,088,32,32,41,093,31*79\r\n'
b'$GPGSV,3,2,12,03,37,307,33,26,29,166,37,25,27,049,33,01,20,257,34*79\r\n'
b'$GPGSV,3,3,12,23,06,287,25,10,06,152,30,16,04,182,27,12,01,026,*7E\r\n'
b'$GPRMC,150429.000,A,4448.9714,N,09130.0291,W,18.01,166.38,210416,,,A*43\r\n'
b'$GPGGA,150430.000,4448.9662,N,09130.0273,W,1,10,0.9,254.8,M,-33.8,M,,0000*61\r\n'
b'$GPGSA,A,3,31,25,10,22,14,23,01,32,26,03,,,1.5,0.9,1.3*3A\r\n'
b'$GPRMC,150430.000,A,4448.9662,N,09130.0273,W,19.67,164.81,210416,,,A*46\r\n'
b'$GPGGA,150431.000,4448.9604,N,09130.0253,W,1,10,0.9,254.8,M,-33.8,M,,0000*62\r\n'
b'$GPGSA,A,3,31,25,10,22,14,23,01,32,26,03,,,1.5,0.9,1.3*3A\r\n'
b'$GPRMC,150431.000,A,4448.9604,N,09130.0253,W,21.68,165.27,210416,,,A*4C\r\n'
b'$GPGGA,150432.000,4448.9542,N,09130.0233,W,1,10,0.9,254.8,M,-33.8,M,,0000*66\r\n'
b'$GPGSA,A,3,31,25,10,22,14,23,01,32,26,03,,,1.5,0.9,1.3*3A\r\n'
b'$GPRMC,150432.000,A,4448.9542,N,09130.0233,W,23.34,167.82,210416,,,A*4E\r\n'
b'$GPGGA,150433.000,4448.9475,N,09130.0214,W,1,10,0.9,254.8,M,-33.8,M,,0000*67\r\n'
b'$GPGSA,A,3,31,25,10,22,14,23,01,32,26,03,,,1.5,0.9,1.3*3A\r\n'
b'$GPRMC,150433.000,A,4448.9475,N,09130.0214,W,24.33,168.35,210416,,,A*4C\r\n'
b'$GPGGA,150434.000,4448.9406,N,09130.0195,W,1,10,0.9,254.6,M,-33.8,M,,0000*60\r\n'
b'$GPGSA,A,3,31,25,10,22,14,23,01,32,26,03,,,1.5,0.9,1.3*3A\r\n'
b'$GPGSV,3,1,12,31,82,042,35,22,59,275,39,14,42,088,32,32,41,093,32*7B\r\n'
b'$GPGSV,3,2,12,03,37,307,28,26,29,166,37,25,27,049,33,01,20,257,35*72\r\n'
b'$GPGSV,3,3,12,23,06,287,26,10,06,152,33,16,04,182,21,12,01,026,*78\r\n'
b'$GPRMC,150434.000,A,4448.9406,N,09130.0195,W,24.88,168.91,210416,,,A*4B\r\n'
b'$GPGGA,150435.000,4448.9336,N,09130.0177,W,1,10,0.9,254.4,M,-33.8,M,,0000*6B\r\n'
b'$GPGSA,A,3,31,25,10,22,14,23,01,32,26,03,,,1.5,0.9,1.3*3A\r\n'
b'$GPRMC,150435.000,A,4448.9336,N,09130.0177,W,25.41,169.43,210416,,,A*48\r\n'
b'$GPGGA,150436.000,4448.9265,N,09130.0160,W,1,10,0.9,253.9,M,-33.8,M,,0000*63\r\n'
b'$GPGSA,A,3,31,25,10,22,14,23,01,32,26,03,,,1.5,0.9,1.3*3A\r\n'
b'$GPRMC,150436.000,A,4448.9265,N,09130.0160,W,25.53,170.00,210416,,,A*46\r\n'
b'$GPGGA,150437.000,4448.9194,N,09130.0142,W,1,10,0.9,253.6,M,-33.8,M,,0000*60\r\n'
b'$GPGSA,A,3,31,25,10,22,14,23,01,32,26,03,,,1.5,0.9,1.3*3A\r\n'
b'$GPRMC,150437.000,A,4448.9194,N,09130.0142,W,25.27,170.17,210416,,,A*4F\r\n'
b'$GPGGA,150438.000,4448.9123,N,09130.0125,W,1,10,0.9,253.2,M,-33.8,M,,0000*66\r\n'
b'$GPGSA,A,3,31,25,10,22,14,23,01,32,26,03,,,1.5,0.9,1.3*3A\r\n'
b'$GPRMC,150438.000,A,4448.9123,N,09130.0125,W,25.45,169.73,210416,,,A*43\r\n'
b'$GPGGA,150439.000,4448.9052,N,09130.0106,W,1,10,0.9,253.2,M,-33.8,M,,0000*61\r\n'
b'$GPGSA,A,3,31,25,10,22,14,23,01,32,26,03,,,1.5,0.9,1.3*3A\r\n'
b'$GPGSV,3,1,12,31,82,042,37,22,59,275,39,14,42,088,35,32,41,093,31*7D\r\n'
b'$GPGSV,3,2,12,03,37,307,27,26,29,166,38,25,27,049,31,01,20,257,30*75\r\n'
b'$GPGSV,3,3,12,23,06,287,18,10,06,152,34,16,04,182,30,12,01,026,*72\r\n'
b'$GPRMC,150439.000,A,4448.9052,N,09130.0106,W,25.19,168.78,210416,,,A*47\r\n'
b'$GPGGA,150440.000,4448.8982,N,09130.0087,W,1,10,0.9,252.8,M,-33.8,M,,0000*69\r\n'
b'$GPGSA,A,3,31,25,10,22,14,23,01,32,26,03,,,1.5,0.9,1.3*3A\r\n'
b'$GPRMC,150440.000,A,4448.8982,N,09130.0087,W,24.66,169.24,210416,,,A*45\r\n'
b'$GPGGA,150441.000,4448.8912,N,09130.0071,W,1,10,0.9,252.7,M,-33.8,M,,0000*67\r\n'
b'$GPGSA,A,3,31,25,10,22,14,23,01,32,26,03,,,1.5,0.9,1.3*3A\r\n'
b'$GPRMC,150441.000,A,4448.8912,N,09130.0071,W,24.42,170.21,210416,,,A*4F\r\n'
b'$GPGGA,150442.000,4448.8843,N,09130.0055,W,1,10,0.9,252.6,M,-33.8,M,,0000*66\r\n'
b'$GPGSA,A,3,31,25,10,22,14,23,01,32,26,03,,,1.5,0.9,1.3*3A\r\n'
b'$GPRMC,150442.000,A,4448.8843,N,09130.0055,W,24.31,170.02,210416,,,A*4A\r\n'
b'$GPGGA,150443.000,4448.8775,N,09130.0038,W,1,10,0.9,252.5,M,-33.8,M,,0000*65\r\n'
b'$GPGSA,A,3,31,25,10,22,14,23,01,32,26,03,,,1.5,0.9,1.3*3A\r\n'
b'$GPRMC,150443.000,A,4448.8775,N,09130.0038,W,24.36,169.93,210416,,,A*4D\r\n'
b'$GPGGA,150444.000,4448.8708,N,09130.0021,W,1,10,0.9,252.1,M,-33.8,M,,0000*64\r\n'
b'$GPGSA,A,3,31,25,10,22,14,23,01,32,26,03,,,1.5,0.9,1.3*3A\r\n'
b'$GPGSV,3,1,12,31,82,042,37,22,59,275,39,14,42,088,34,32,41,093,31*7C\r\n'
b'$GPGSV,3,2,12,03,37,307,25,26,29,166,38,25,27,049,23,01,20,257,26*73\r\n'
b'$GPGSV,3,3,12,23,06,287,15,10,06,152,30,16,04,182,28,12,01,026,*72\r\n'
b'$GPRMC,150444.000,A,4448.8708,N,09130.0021,W,23.83,169.55,210416,,,A*4B\r\n'
b'$GPGGA,150445.000,4448.8641,N,09130.0004,W,1,09,1.0,251.9,M,-33.8,M,,0000*65\r\n'
b'$GPGSA,A,3,31,25,10,22,14,23,32,26,03,,,,1.6,1.0,1.3*30\r\n'
b'$GPRMC,150445.000,A,4448.8641,N,09130.0004,W,23.64,169.40,210416,,,A*4C\r\n'
b'$GPGGA,150446.000,4448.8576,N,09129.9988,W,1,10,0.9,251.8,M,-33.8,M,,0000*6C\r\n'
b'$GPGSA,A,3,31,25,10,22,14,23,01,32,26,03,,,1.5,0.9,1.3*3A\r\n'
b'$GPRMC,150446.000,A,4448.8576,N,09129.9988,W,23.50,169.45,210416,,,A*46\r\n'
b'$GPGGA,150447.000,4448.8512,N,09129.9974,W,1,10,0.9,251.2,M,-33.8,M,,0000*66\r\n'
b'$GPGSA,A,3,31,25,10,22,14,23,01,32,26,03,,,1.5,0.9,1.3*3A\r\n'
b'$GPRMC,150447.000,A,4448.8512,N,09129.9974,W,23.35,170.11,210416,,,A*4C\r\n'
b'$GPGGA,150448.000,4448.8447,N,09129.9959,W,1,10,0.9,250.7,M,-33.8,M,,0000*63\r\n'
b'$GPGSA,A,3,31,25,10,22,14,23,01,32,26,03,,,1.5,0.9,1.3*3A\r\n'
b'$GPRMC,150448.000,A,4448.8447,N,09129.9959,W,23.11,170.07,210416,,,A*4C\r\n'
b'$GPGGA,150449.000,4448.8383,N,09129.9944,W,1,10,0.9,250.5,M,-33.8,M,,0000*63\r\n'
b'$GPGSA,A,3,31,25,10,22,14,23,01,32,26,03,,,1.5,0.9,1.3*3A\r\n'
b'$GPGSV,3,1,12,31,82,042,38,22,59,275,39,14,42,088,34,32,41,093,31*73\r\n'
b'$GPGSV,3,2,12,03,37,307,29,26,29,166,38,25,27,049,30,01,20,257,33*79\r\n'
b'$GPGSV,3,3,12,23,06,287,14,10,06,152,18,16,04,182,14,12,01,026,*76\r\n'
b'$GPRMC,150449.000,A,4448.8383,N,09129.9944,W,23.24,169.91,210416,,,A*4F\r\n'
b'$GPGGA,150450.000,4448.8319,N,09129.9929,W,1,10,0.9,250.4,M,-33.8,M,,0000*62\r\n'
b'$GPGSA,A,3,31,25,10,22,14,23,01,32,26,03,,,1.5,0.9,1.3*3A\r\n'
b'$GPRMC,150450.000,A,4448.8319,N,09129.9929,W,23.09,169.91,210416,,,A*40\r\n'
b'$GPGGA,150451.000,4448.8255,N,09129.9914,W,1,10,0.9,250.3,M,-33.8,M,,0000*63\r\n'
b'$GPGSA,A,3,31,25,10,22,14,23,01,32,26,03,,,1.5,0.9,1.3*3A\r\n'
b'$GPRMC,150451.000,A,4448.8255,N,09129.9914,W,23.06,169.84,210416,,,A*4D\r\n'
b'$GPGGA,150452.000,4448.8191,N,09129.9899,W,1,10,0.9,250.0,M,-33.8,M,,0000*6C\r\n'
b'$GPGSA,A,3,31,25,10,22,14,23,01,32,26,03,,,1.5,0.9,1.3*3A\r\n'
b'$GPRMC,150452.000,A,4448.8191,N,09129.9899,W,23.10,169.76,210416,,,A*4B\r\n'
b'$GPGGA,150453.000,4448.8127,N,09129.9884,W,1,09,1.0,250.0,M,-33.8,M,,0000*6C\r\n'
b'$GPGSA,A,3,31,25,10,22,14,01,32,26,03,,,,1.8,1.0,1.5*38\r\n'
b'$GPRMC,150453.000,A,4448.8127,N,09129.9884,W,22.75,169.75,210416,,,A*4A\r\n'
b'$GPGGA,150454.000,4448.8065,N,09129.9868,W,1,09,1.0,250.0,M,-33.8,M,,0000*6E\r\n'
b'$GPGSA,A,3,31,25,10,22,14,01,32,26,03,,,,1.8,1.0,1.5*38\r\n'
b'$GPGSV,3,1,12,31,82,042,37,22,59,275,40,14,42,088,33,32,41,093,31*75\r\n'
b'$GPGSV,3,2,12,03,37,307,30,26,29,166,39,25,27,049,35,01,20,257,34*72\r\n'
b'$GPGSV,3,3,12,23,06,287,,10,06,152,23,16,04,182,,12,01,026,*7E\r\n'
b'$GPRMC,150454.000,A,4448.8065,N,09129.9868,W,22.50,169.43,210416,,,A*4A\r\n'
b'$GPGGA,150455.000,4448.8003,N,09129.9853,W,1,10,0.9,250.1,M,-33.8,M,,0000*66\r\n'
b'$GPGSA,A,3,31,25,10,22,14,23,01,32,26,03,,,1.5,0.9,1.3*3A\r\n'
b'$GPRMC,150455.000,A,4448.8003,N,09129.9853,W,22.14,169.73,210416,,,A*40\r\n'
b'$GPGGA,150456.000,4448.7943,N,09129.9837,W,1,10,0.9,250.0,M,-33.8,M,,0000*64\r\n'
b'$GPGSA,A,3,31,25,10,22,14,23,01,32,26,03,,,1.5,0.9,1.3*3A\r\n'
b'$GPRMC,150456.000,A,4448.7943,N,09129.9837,W,21.75,169.11,210416,,,A*43\r\n'
b'$GPGGA,150457.000,4448.7882,N,09129.9821,W,1,10,0.9,250.2,M,-33.8,M,,0000*6C\r\n'
b'$GPGSA,A,3,31,25,10,22,14,23,01,32,26,03,,,1.5,0.9,1.2*3B\r\n'
b'$GPRMC,150457.000,A,4448.7882,N,09129.9821,W,21.87,169.02,210416,,,A*46\r\n'
b'$GPGGA,150458.000,4448.7823,N,09129.9804,W,1,10,0.9,250.0,M,-33.8,M,,0000*6D\r\n'
b'$GPGSA,A,3,31,25,10,22,14,23,01,32,26,03,,,1.5,0.9,1.2*3B\r\n'
b'$GPRMC,150458.000,A,4448.7823,N,09129.9804,W,21.42,168.23,210416,,,A*4E\r\n'
b'$GPGGA,150459.000,4448.7764,N,09129.9786,W,1,10,0.9,250.3,M,-33.8,M,,0000*66\r\n'
b'$GPGSA,A,3,31,25,10,22,14,23,01,32,26,03,,,1.5,0.9,1.2*3B\r\n'
b'$GPGSV,3,1,12,31,82,042,37,22,59,275,40,14,42,088,33,32,41,093,31*75\r\n'
b'$GPGSV,3,2,12,03,37,307,26,26,29,166,39,25,27,049,31,01,20,257,30*75\r\n'
b'$GPGSV,3,3,12,23,06,287,21,10,06,152,34,16,04,182,,12,01,026,*7B\r\n'
b'$GPRMC,150459.000,A,4448.7764,N,09129.9786,W,21.55,165.20,210416,,,A*4E\r\n'
b'$GPGGA,150500.000,4448.7705,N,09129.9762,W,1,10,0.9,251.0,M,-33.8,M,,0000*64\r\n'
b'$GPGSA,A,3,31,25,10,22,14,23,01,32,26,03,,,1.5,0.9,1.2*3B\r\n'
b'$GPRMC,150500.000,A,4448.7705,N,09129.9762,W,21.45,162.05,210416,,,A*4F\r\n'
b'$GPGGA,150501.000,4448.7646,N,09129.9736,W,1,10,0.9,251.6,M,-33.8,M,,0000*64\r\n'
b'$GPGSA,A,3,31,25,10,22,14,23,01,32,26,03,,,1.5,0.9,1.2*3B\r\n'
b'$GPRMC,150501.000,A,4448.7646,N,09129.9736,W,21.53,162.50,210416,,,A*4E\r\n'
b'$GPGGA,150502.000,4448.7588,N,09129.9709,W,1,10,0.9,252.3,M,-33.8,M,,0000*6C\r\n'
b'$GPGSA,A,3,31,25,10,22,14,23,01,32,26,03,,,1.5,0.9,1.2*3B\r\n'
b'$GPRMC,150502.000,A,4448.7588,N,09129.9709,W,21.39,160.39,210416,,,A*41\r\n'
b'$GPGGA,150503.000,4448.7531,N,09129.9678,W,1,10,0.9,252.8,M,-33.8,M,,0000*63\r\n'
b'$GPGSA,A,3,31,25,10,22,14,23,01,32,26,03,,,1.5,0.9,1.2*3B\r\n'
b'$GPRMC,150503.000,A,4448.7531,N,09129.9678,W,21.71,157.35,210416,,,A*41\r\n'
b'$GPGGA,150504.000,4448.7476,N,09129.9643,W,1,10,0.9,253.0,M,-33.8,M,,0000*67\r\n'
b'$GPGSA,A,3,31,25,10,22,14,23,01,32,26,03,,,1.5,0.9,1.2*3B\r\n'
b'$GPGSV,3,1,12,31,82,042,37,22,59,275,37,14,42,088,32,32,41,093,39*7C\r\n'
b'$GPGSV,3,2,12,03,37,307,34,26,29,166,16,25,27,049,33,01,20,257,32*7B\r\n'
b'$GPGSV,3,3,12,23,06,287,21,10,06,152,23,16,04,182,,12,01,026,*7D\r\n'
b'$GPRMC,150504.000,A,4448.7476,N,09129.9643,W,22.27,153.98,210416,,,A*4F\r\n'
b'$GPGGA,150505.000,4448.7421,N,09129.9602,W,1,10,0.9,252.7,M,-33.8,M,,0000*67\r\n'
b'$GPGSA,A,3,31,25,10,22,14,23,01,32,26,03,,,1.5,0.9,1.2*3B\r\n'
b'$GPRMC,150505.000,A,4448.7421,N,09129.9602,W,22.38,150.82,210416,,,A*4F\r\n'
b'$GPGGA,150506.000,4448.7366,N,09129.9557,W,1,10,0.9,252.4,M,-33.8,M,,0000*60\r\n'
b'$GPGSA,A,3,31,25,10,22,14,23,01,32,26,03,,,1.5,0.9,1.2*3B\r\n'
b'$GPRMC,150506.000,A,4448.7366,N,09129.9557,W,23.13,148.72,210416,,,A*45\r\n'
b'$GPGGA,150507.000,4448.7314,N,09129.9507,W,1,09,1.0,252.3,M,-33.8,M,,0000*66\r\n'
b'$GPGSA,A,3,31,25,10,22,14,01,32,26,03,,,,1.8,1.0,1.5*38\r\n'
b'$GPRMC,150507.000,A,4448.7314,N,09129.9507,W,22.70,144.42,210416,,,A*4F\r\n'
b'$GPGGA,150508.000,4448.7262,N,09129.9456,W,1,08,1.1,251.8,M,-33.8,M,,0000*64\r\n'
b'$GPGSA,A,3,31,25,10,22,14,32,26,03,,,,,2.0,1.1,1.7*31\r\n'
b'$GPRMC,150508.000,A,4448.7262,N,09129.9456,W,22.97,146.03,210416,,,A*4B\r\n'
b'$GPGGA,150509.000,4448.7209,N,09129.9405,W,1,08,1.1,252.1,M,-33.8,M,,0000*64\r\n'
b'$GPGSA,A,3,31,25,10,22,14,32,26,03,,,,,2.0,1.1,1.7*31\r\n'
b'$GPGSV,3,1,12,31,82,042,37,22,59,275,26,14,42,088,38,32,41,093,42*7A\r\n'
b'$GPGSV,3,2,12,03,37,307,20,26,29,166,19,25,27,049,38,01,20,257,*7B\r\n'
b'$GPGSV,3,3,12,23,06,287,11,10,06,152,30,16,04,182,,12,01,026,*7C\r\n'
b'$GPRMC,150509.000,A,4448.7209,N,09129.9405,W,22.78,145.45,210416,,,A*41\r\n'
b'$GPGGA,150510.000,4448.7156,N,09129.9355,W,1,08,1.1,252.4,M,-33.8,M,,0000*62\r\n'
b'$GPGSA,A,3,31,25,10,22,14,32,26,03,,,,,2.0,1.1,1.7*31\r\n'
b'$GPRMC,150510.000,A,4448.7156,N,09129.9355,W,22.23,145.77,210416,,,A*4D\r\n'
b'$GPGGA,150511.000,4448.7105,N,09129.9306,W,1,08,1.1,252.8,M,-33.8,M,,0000*6F\r\n'
b'$GPGSA,A,3,31,25,10,22,14,32,26,03,,,,,2.0,1.1,1.7*31\r\n'
b'$GPRMC,150511.000,A,4448.7105,N,09129.9306,W,21.57,145.84,210416,,,A*40\r\n'
b'$GPGGA,150512.000,4448.7056,N,09129.9260,W,1,08,1.1,253.3,M,-33.8,M,,0000*60\r\n'
b'$GPGSA,A,3,31,25,10,22,14,32,26,03,,,,,2.0,1.1,1.7*31\r\n'
b'$GPRMC,150512.000,A,4448.7056,N,09129.9260,W,19.79,144.19,210416,,,A*47\r\n'
b'$GPGGA,150513.000,4448.7013,N,09129.9216,W,1,08,1.1,253.5,M,-33.8,M,,0000*67\r\n'
b'$GPGSA,A,3,31,25,10,22,14,32,26,03,,,,,2.0,1.1,1.7*31\r\n'
b'$GPRMC,150513.000,A,4448.7013,N,09129.9216,W,18.31,141.25,210416,,,A*41\r\n'
b'$GPGGA,150514.000,4448.6974,N,09129.9175,W,1,08,1.1,253.7,M,-33.8,M,,0000*6D\r\n'
b'$GPGSA,A,3,31,25,10,22,14,32,26,03,,,,,2.0,1.1,1.7*31\r\n'
b'$GPGSV,3,1,12,31,82,042,36,22,59,275,30,14,42,088,39,32,41,093,39*71\r\n'
b'$GPGSV,3,2,12,03,37,307,24,26,29,166,36,25,27,049,29,01,20,257,*72\r\n'
b'$GPGSV,3,3,12,23,06,287,12,10,06,152,33,16,04,182,23,12,01,026,*7D\r\n'
b'$GPRMC,150514.000,A,4448.6974,N,09129.9175,W,16.39,140.45,210416,,,A*48\r\n'
b'$GPGGA,150515.000,4448.6937,N,09129.9140,W,1,08,1.1,254.7,M,-33.8,M,,0000*6A\r\n'
b'$GPGSA,A,3,31,25,10,22,14,32,26,03,,,,,2.0,1.1,1.7*31\r\n'
b'$GPRMC,150515.000,A,4448.6937,N,09129.9140,W,14.51,143.35,210416,,,A*40\r\n'
b'$GPGGA,150516.000,4448.6906,N,09129.9112,W,1,08,1.1,255.1,M,-33.8,M,,0000*6B\r\n'
b'$GPGSA,A,3,31,25,10,22,14,32,26,03,,,,,2.0,1.1,1.7*31\r\n'
b'$GPRMC,150516.000,A,4448.6906,N,09129.9112,W,11.82,143.92,210416,,,A*40\r\n'
b'$GPGGA,150517.000,4448.6880,N,09129.9091,W,1,08,1.1,255.5,M,-33.8,M,,0000*6B\r\n'
b'$GPGSA,A,3,31,25,10,22,14,32,26,03,,,,,2.0,1.1,1.7*31\r\n'
b'$GPRMC,150517.000,A,4448.6880,N,09129.9091,W,9.57,145.88,210416,,,A*78\r\n'
b'$GPGGA,150518.000,4448.6861,N,09129.9072,W,1,09,1.0,255.5,M,-33.8,M,,0000*66\r\n'
b'$GPGSA,A,3,31,25,10,22,14,01,32,26,03,,,,1.8,1.0,1.5*38\r\n'
b'$GPRMC,150518.000,A,4448.6861,N,09129.9072,W,7.93,145.71,210416,,,A*75\r\n'
b'$GPGGA,150519.000,4448.6844,N,09129.9054,W,1,09,1.0,255.4,M,-33.8,M,,0000*65\r\n'
b'$GPGSA,A,3,31,25,10,22,14,01,32,26,03,,,,1.8,1.0,1.5*38\r\n'
b'$GPGSV,3,1,12,31,82,042,36,22,59,275,41,14,42,088,40,32,41,093,43*74\r\n'
b'$GPGSV,3,2,12,03,37,307,32,26,29,166,41,25,27,049,33,01,20,257,22*7E\r\n'
b'$GPGSV,3,3,12,23,06,287,,10,06,152,38,16,04,182,25,12,01,026,*73\r\n'
